[
  {
    "name": "A R Residency",
    "address": "A-54, near Ramzani Masjid, Abul Fazal Enclave Part 1, Abul Fazal Enclave, Jamia Nagar, Okhla, New Delhi, Delhi 110025",
    "latitude": 28.5607222,
    "longitude": 77.2926908,
    "rating": 4.0,
    "room": "Luxary Single Room|Standard Double",
    "price": "5524|6859",
    "checkin": "07:00",
    "checkout": "14:00",
    "facilities": "Free Wi-Fi, Parking facility (As Per Availability), Public Restroom, Free toiletries"
  },
  {
    "name": "Hotel River View",
    "address": "Bhaskar Compound, B-9, Kalindi Kunj Rd, Abul Fazal Enclave Part 1, Part 1 Abul Fazal Enclave, Block E, Jamia Nagar, Okhla, New Delhi, Delhi 110025",
    "latitude": 28.5572348,
    "longitude": 77.2966881,
    "rating": 4.7,
    "room": "Sleeping Pods-6 hrs|Sleeping Pods-24 hrs",
    "price": "1667|1734",
    "checkin": "anytime",
    "checkout": "anytime",
    "facilities": "Front Desk, Parking facility (As Per Availability), Public Restroom, Luggage Storage, Free Wi-Fi, Free toiletries"
  },
  {
    "name": "Townhouse OAK The ICS Hotel Okhla",
    "address": "A-36, Abul Fazal Enclave Rd, Abul Fazal Enclave, Jamia Nagar, Okhla, New Delhi, Delhi 110025",
    "latitude": 28.561597,
    "longitude": 77.292545,
    "rating": 2.8,
    "room": "Luxary Single Room",
    "price": "5445",
    "checkin": "11:00",
    "checkout": "11:00",
    "facilities": "Front Desk, Luggage Storage"
  },
  {
    "name": "HOTEL MARIGOLD JASOLA",
    "address": "Plot No.-81, behind Apollo hospital, near Pocket 10B, Jasola, Jasola Vihar, New Delhi, Delhi 110025",
    "latitude": 28.5456461,
    "longitude": 77.2919327,
    "rating": 3.2,
    "room": "Standard Double|Luxary Single Room|Male Dormitory-6 hrs|Male Dormitory-12 hrs|Female Dormitory-12 hrs|Female Dormitory-3 hrs|Female Dormitory-6 hrs",
    "price": "5022|7709|1209|1576|1888|531|597",
    "checkin": "anytime",
    "checkout": "anytime",
    "facilities": "Parking facility (As Per Availability), Free Wi-Fi, Public Restroom"
  },
  {
    "name": "FabExpress The Paradise",
    "address": "Living Style Mall, Jasola, Delhi, G-43, EDEN BUILDING, SHAHEEN BAGH MAIN MARKET JASOLA KALANDI KUNJ NOIDA, ROAD, next to JASOLA, Okhla, New Delhi, Delhi 110025",
    "latitude": 28.542751,
    "longitude": 77.301876,
    "rating": 2.9,
    "room": "Female Dormitory-6 hrs|Female Dormitory-12 hrs|Female Dormitory-24 hrs|Female Dormitory-3 hrs",
    "price": "1048|1296|1694|1155",
    "checkin": "anytime",
    "checkout": "anytime",
    "facilities": "Public Restroom, Free Wi-Fi"
  },
  {
    "name": "Jashn Inn",
    "address": "Plot No 50, Pocket 2, Jasola Vihar, New Delhi, Delhi 110025",
    "latitude": 28.5421955,
    "longitude": 77.2932762,
    "rating": 2.8,
    "room": "Standard Double|Luxary Single Room|Luxary Double Room|Female Dormitory-24 hrs|Female Dormitory-6 hrs|Female Dormitory-12 hrs|Female Dormitory-3 hrs",
    "price": "6209|6075|18569|1667|1324|1888|1715",
    "checkin": "anytime",
    "checkout": "anytime",
    "facilities": "Free toiletries, Front Desk, Parking facility (As Per Availability), Public Restroom, Free Wi-Fi"
  },
  {
    "name": "HR Grand Hotel",
    "address": "256/9, Main Road, behind Apollo Hospital, Pocket 10B, Jasola Vihar, New Delhi, Delhi 110025",
    "latitude": 28.5448673,
    "longitude": 77.2904359,
    "rating": 3.2,
    "room": "Male Dormitory-3 hrs",
    "price": "1208",
    "checkin": "anytime",
    "checkout": "anytime",
    "facilities": "Luggage Storage, Front Desk"
  },
  {
    "name": "Hotel Centrum",
    "address": "D-984, near Gurudwara Road, Block D, F/F, New Friends Colony, New Delhi, Delhi 110065",
    "latitude": 28.5691364,
    "longitude": 77.2676851,
    "rating": 3.9,
    "room": "Sleeping Pods-12 hrs|Sleeping Pods-24 hrs",
    "price": "1179|598",
    "checkin": "anytime",
    "checkout": "anytime",
    "facilities": "Free toiletries, Front Desk, Public Restroom"
  },
  {
    "name": "South Delhi inn - Hotel Near , Hazrat Nizamuddin Railway Station",
    "address": "Phase 2, 87, Dharamvir Mann Marg, Siddhartha Enclave, Hari Nagar Ashram, New Delhi, Delhi 110014",
    "latitude": 28.5747495,
    "longitude": 77.2574412,
    "rating": 4.1,
    "room": "Standard Double|Luxary Single Room|Luxary Double Room",
    "price": "6913|6866|17054",
    "checkin": "10:00",
    "checkout": "13:00",
    "facilities": "Free Wi-Fi, Front Desk, Public Restroom, Parking facility (As Per Availability), Free toiletries, Luggage Storage"
  },
  {
    "name": "Hotel Kundan Palace",
    "address": "Sports Complex, Plot No.-3, next to Jasola Road, near Pkt-10B, Jasola, Jasola Vihar, New Delhi, Delhi 110025",
    "latitude": 28.5458606,
    "longitude": 77.2919307,
    "rating": 4.4,
    "room": "Sleeping Pods-3 hrs|Sleeping Pods-12 hrs|Sleeping Pods-6 hrs",
    "price": "1693|819|771",
    "checkin": "anytime",
    "checkout": "anytime",
    "facilities": "Public Restroom, Free Wi-Fi, Free toiletries"
  },
  {
    "name": "Emblem Hotel New Friends Colony New Delhi",
    "address": "E-5, Eastern Ave, near New Friends Colony, Block E, Kalindi Colony, New Friends Colony, New Delhi, Delhi 110065",
    "latitude": 28.5748314,
    "longitude": 77.2642944,
    "rating": 3.4,
    "room": "Sleeping Pods-3 hrs",
    "price": "1611",
    "checkin": "anytime",
    "checkout": "anytime",
    "facilities": "Front Desk, Luggage Storage, Free Wi-Fi, Free toiletries, Parking facility (As Per Availability)"
  },
  {
    "name": "Hotel OM Plaza",
    "address": "1152 73, South, behind GD Goenka Public School, Madanpur Khadar Village, Madanpur Khadar, New Delhi, Delhi 110076",
    "latitude": 28.5360792,
    "longitude": 77.2969221,
    "rating": 4.9,
    "room": "Sleeping Pods-24 hrs|Sleeping Pods-6 hrs|Sleeping Pods-3 hrs",
    "price": "801|1679|1427",
    "checkin": "anytime",
    "checkout": "anytime",
    "facilities": "Front Desk, Luggage Storage, Free toiletries, Free Wi-Fi"
  },
  {
    "name": "K2 Guest House",
    "address": "H7Q4+WG6, 33-D Nangli Rajapur, Near ISBT,Sarai Kale Khan, Block D, Nagli Rajapur, Nizamuddin East, New Delhi, Delhi 110013",
    "latitude": 28.5897908,
    "longitude": 77.2562668,
    "rating": 2.5,
    "room": "Luxary Double Room|Standard Double",
    "price": "19156|5958",
    "checkin": "08:00",
    "checkout": "14:00",
    "facilities": "Luggage Storage, Free Wi-Fi, Front Desk, Free toiletries, Parking facility (As Per Availability), Public Restroom"
  },
  {
    "name": "Hotel O Royal Green",
    "address": "M 55, 2nd floorLajpat nagar, part 2, Lajpat Nagar, New Delhi, Delhi 110024",
    "latitude": 28.5680673,
    "longitude": 77.2469716,
    "rating": 4.0,
    "room": "Sleeping Pods-24 hrs|Sleeping Pods-6 hrs|Sleeping Pods-12 hrs|Sleeping Pods-3 hrs",
    "price": "1596|879|1900|1296",
    "checkin": "anytime",
    "checkout": "anytime",
    "facilities": "Luggage Storage, Front Desk, Free Wi-Fi, Free toiletries, Public Restroom, Parking facility (As Per Availability)"
  },
  {
    "name": "River View Restaurant",
    "address": "Bhaskar Compound, B- 9, Kalindi Kunj Rd, Abul Fazal Enclave Part 1, Part 1 Abul Fazal Enclave, Block E, Jamia Nagar, Okhla, New Delhi, Delhi 110025",
    "latitude": 28.5572802,
    "longitude": 77.2967244,
    "rating": 2.6,
    "room": "Standard Double|Luxary Single Room|Luxary Double Room|Female Dormitory-24 hrs|Female Dormitory-3 hrs|Female Dormitory-12 hrs|Female Dormitory-6 hrs",
    "price": "6501|7050|18187|1102|1840|507|1351",
    "checkin": "anytime",
    "checkout": "anytime",
    "facilities": "Front Desk, Parking facility (As Per Availability)"
  },
  {
    "name": "Hotel O Metro Residency",
    "address": "G-67A T/F ,Kalkaji,New Delhi, T/F, G-67A, Kalkaji, New DelhiNew Delhi, Delhi, 110019",
    "latitude": 28.5412039,
    "longitude": 77.2598241,
    "rating": 4.0,
    "room": "Luxary Single Room",
    "price": "5654",
    "checkin": "10:00",
    "checkout": "13:00",
    "facilities": "Free toiletries, Front Desk, Free Wi-Fi, Parking facility (As Per Availability)"
  },
  {
    "name": "Hotel Samrat Residency",
    "address": "Shashtri Market, 707, Jangpura Rd, near Aggarwal Cement, Bhogal, New Delhi, Delhi 110014",
    "latitude": 28.5820083,
    "longitude": 77.2509466,
    "rating": 4.1,
    "room": "Standard Double|Luxary Double Room|Female Dormitory-24 hrs|Female Dormitory-6 hrs",
    "price": "6234|15444|818|1810",
    "checkin": "anytime",
    "checkout": "anytime",
    "facilities": "Luggage Storage, Parking facility (As Per Availability), Free toiletries"
  },
  {
    "name": "The Eden- a residence",
    "address": "G-43, Kalindikunj, Jasola Rd, near Woodland & zudio Showroom, Okhla, New Delhi, Delhi 110025",
    "latitude": 28.5426575,
    "longitude": 77.3017074,
    "rating": 2.7,
    "room": "Standard Double|Luxary Single Room|Luxary Double Room|Female Dormitory-24 hrs|Female Dormitory-12 hrs",
    "price": "6002|5768|17513|1956|554",
    "checkin": "anytime",
    "checkout": "anytime",
    "facilities": "Parking facility (As Per Availability), Luggage Storage, Front Desk, Free Wi-Fi, Free toiletries, Public Restroom"
  },
  {
    "name": "Lyf Corporate Suites - Noida Sector 19",
    "address": "B-6, B Block, Pocket B, Sector 19, Noida, Uttar Pradesh 201301",
    "latitude": 28.5795095,
    "longitude": 77.323349,
    "rating": 4.8,
    "room": "Sleeping Pods-6 hrs|Sleeping Pods-24 hrs|Sleeping Pods-12 hrs|Sleeping Pods-3 hrs",
    "price": "551|1769|967|1422",
    "checkin": "anytime",
    "checkout": "anytime",
    "facilities": "Luggage Storage, Front Desk, Free Wi-Fi"
  },
  {
    "name": "Hotel Diamond",
    "address": "Hotel Diamond 18, opposite pillar no 80, main, Atta Market, Sector 27, Noida, Uttar Pradesh 201301",
    "latitude": 28.5727729,
    "longitude": 77.3245239,
    "rating": 4.4,
    "room": "Sleeping Pods-3 hrs|Sleeping Pods-12 hrs|Sleeping Pods-24 hrs|Sleeping Pods-6 hrs",
    "price": "854|1691|505|518",
    "checkin": "anytime",
    "checkout": "anytime",
    "facilities": "Luggage Storage, Public Restroom, Free Wi-Fi, Front Desk, Parking facility (As Per Availability)"
  },
  {
    "name": "A. K. Rajput Guest House",
    "address": "Prachin Manokamna Mata Mandir Rd, Block C, Nagli Rajapur, Nizamuddin East, New Delhi, Delhi 110013",
    "latitude": 28.5900702,
    "longitude": 77.2564245,
    "rating": 3.1,
    "room": "Sleeping Pods-24 hrs|Sleeping Pods-6 hrs",
    "price": "503|1209",
    "checkin": "anytime",
    "checkout": "anytime",
    "facilities": "Luggage Storage, Parking facility (As Per Availability), Free Wi-Fi, Public Restroom"
  },
  {
    "name": "OYO Unique Delhi Home Stay",
    "address": "C, 2055Lajpat Nagar, Block D, part 2, Lajpat Nagar, New Delhi, Delhi 110024",
    "latitude": 28.5782973,
    "longitude": 77.2414397,
    "rating": 2.7,
    "room": "Female Dormitory-12 hrs",
    "price": "1337",
    "checkin": "anytime",
    "checkout": "anytime",
    "facilities": "Public Restroom, Luggage Storage, Free toiletries, Parking facility (As Per Availability)"
  },
  {
    "name": "Capital O Hotel Jasram Heritage",
    "address": "Plot No, 215, Jasola Village Ln, near Pocket 10B, behind Apollo Hospital, Jasola, Jasola Vihar, New Delhi, Delhi 110025",
    "latitude": 28.5453699,
    "longitude": 77.2916942,
    "rating": 2.5,
    "room": "Female Dormitory-3 hrs|Female Dormitory-6 hrs|Female Dormitory-24 hrs",
    "price": "1592|631|660",
    "checkin": "anytime",
    "checkout": "anytime",
    "facilities": "Parking facility (As Per Availability), Luggage Storage, Front Desk, Free Wi-Fi, Public Restroom, Free toiletries"
  },
  {
    "name": "Hotel Ashoka Inn",
    "address": "Dadri Main Rd, Village Chhalera & Sadarpur, Chhalera Bangar, Sector 44, Noida, Uttar Pradesh 201303",
    "latitude": 28.560154,
    "longitude": 77.3433626,
    "rating": 4.9,
    "room": "Luxary Single Room|Female Dormitory-6 hrs",
    "price": "5318|892",
    "checkin": "anytime",
    "checkout": "anytime",
    "facilities": "Free toiletries, Front Desk, Parking facility (As Per Availability), Public Restroom, Free Wi-Fi, Luggage Storage"
  },
  {
    "name": "The Bed and Rock",
    "address": "Floor D, First, 7/16, Kalkaji Extension, New Delhi, Delhi 110019",
    "latitude": 28.5446904,
    "longitude": 77.2590461,
    "rating": 4.0,
    "room": "Luxary Double Room|Male Dormitory-24 hrs",
    "price": "17507|1076",
    "checkin": "anytime",
    "checkout": "anytime",
    "facilities": "Front Desk, Public Restroom"
  },
  {
    "name": "New Rajdhani Inn| Hotel in Vinobapuri | Best Hotel in Lajpat Nagar",
    "address": "7/47, Block 7, Nehru Nagar, Lajpat Nagar, New Delhi, Delhi 110065",
    "latitude": 28.5695372,
    "longitude": 77.2520966,
    "rating": 4.7,
    "room": "Luxary Single Room",
    "price": "7403",
    "checkin": "08:00",
    "checkout": "14:00",
    "facilities": "Public Restroom, Front Desk, Parking facility (As Per Availability)"
  },
  {
    "name": "Hotel O Tilak hotel 24 Sector 27 Near by Vinayak Hospital Gali no-6",
    "address": "Shubhash RK, plot no:638, near Baratghar, Atta Market, Pocket E, Sector 27, Noida, Uttar Pradesh 201301",
    "latitude": 28.5720423,
    "longitude": 77.3265505,
    "rating": 4.1,
    "room": "Female Dormitory-12 hrs|Female Dormitory-6 hrs|Female Dormitory-3 hrs",
    "price": "1575|1078|1295",
    "checkin": "anytime",
    "checkout": "anytime",
    "facilities": "Front Desk, Free Wi-Fi"
  },
  {
    "name": "Hotel Raj Palace",
    "address": "Street NO.15, H. No.1661/15, behind Dunga Mandir, opp. Vishal Mega Mart, Govindpuri, New Delhi, Delhi 110019",
    "latitude": 28.5338214,
    "longitude": 77.2601183,
    "rating": 4.8,
    "room": "Luxary Single Room|Male Dormitory-6 hrs|Male Dormitory-12 hrs|Male Dormitory-24 hrs|Male Dormitory-3 hrs",
    "price": "5945|642|1965|1366|556",
    "checkin": "anytime",
    "checkout": "anytime",
    "facilities": "Parking facility (As Per Availability), Free Wi-Fi, Free toiletries"
  },
  {
    "name": "Hotel Admire Inn By ASPL",
    "address": "330, Ops Max hospital, Sector 27, Noida, Uttar Pradesh 201301",
    "latitude": 28.5741201,
    "longitude": 77.3236852,
    "rating": 4.9,
    "room": "Luxary Double Room|Luxary Single Room|Standard Double",
    "price": "19238|5737|5227",
    "checkin": "09:00",
    "checkout": "13:00",
    "facilities": "Free Wi-Fi, Front Desk, Public Restroom"
  },
  {
    "name": "Comfort Plaza Hotel",
    "address": "256/9, Main Road, Pocket 10B, Jasola Vihar, New Delhi, Delhi 110025",
    "latitude": 28.5447248,
    "longitude": 77.290543,
    "rating": 3.1,
    "room": "Luxary Double Room|Luxary Single Room",
    "price": "17155|6926",
    "checkin": "12:00",
    "checkout": "11:00",
    "facilities": "Parking facility (As Per Availability), Free toiletries, Free Wi-Fi, Luggage Storage"
  },
  {
    "name": "The Suryaa New Delhi",
    "address": "MMA Rd, New Friends Colony, New Delhi, Delhi 110025",
    "latitude": 28.5611468,
    "longitude": 77.269517,
    "rating": 3.7,
    "room": "Male Dormitory-24 hrs|Male Dormitory-6 hrs|Male Dormitory-3 hrs|Male Dormitory-12 hrs|Female Dormitory-24 hrs|Female Dormitory-6 hrs|Female Dormitory-12 hrs|Female Dormitory-3 hrs",
    "price": "1994|1502|1463|502|1190|1236|738|1144",
    "checkin": "anytime",
    "checkout": "anytime",
    "facilities": "Parking facility (As Per Availability), Front Desk, Free Wi-Fi, Luggage Storage"
  },
  {
    "name": "PodStop",
    "address": "3, Sant Nagar, East of Kailash, New Delhi, Delhi 110065",
    "latitude": 28.555308,
    "longitude": 77.248108,
    "rating": 2.9,
    "room": "Sleeping Pods-12 hrs|Sleeping Pods-6 hrs|Sleeping Pods-24 hrs",
    "price": "1404|1096|1230",
    "checkin": "anytime",
    "checkout": "anytime",
    "facilities": "Free Wi-Fi, Free toiletries, Public Restroom"
  },
  {
    "name": "FabHotel Under Bridge",
    "address": "147/1 Kirokli, Road, Maharani Bagh, New Delhi, Delhi 110014",
    "latitude": 28.57609,
    "longitude": 77.263438,
    "rating": 3.8,
    "room": "Male Dormitory-24 hrs|Male Dormitory-6 hrs|Male Dormitory-3 hrs|Male Dormitory-12 hrs|Female Dormitory-3 hrs|Female Dormitory-12 hrs",
    "price": "1985|1906|980|882|797|1718",
    "checkin": "anytime",
    "checkout": "anytime",
    "facilities": "Luggage Storage, Front Desk, Parking facility (As Per Availability), Free toiletries, Public Restroom"
  },
  {
    "name": "Hotel O KRISHNA VILLA",
    "address": "Metro, C Lal Chowk, 511/5A, near Tata Motors, Govindpuri, New Delhi, Delhi, 110019",
    "latitude": 28.5355155,
    "longitude": 77.2679222,
    "rating": 2.7,
    "room": "Standard Double|Luxary Single Room|Female Dormitory-24 hrs|Female Dormitory-12 hrs",
    "price": "5046|5110|1444|1117",
    "checkin": "anytime",
    "checkout": "anytime",
    "facilities": "Front Desk, Public Restroom"
  },
  {
    "name": "Buland Plaza",
    "address": "Block G, G-1, Main Rd, Shaheen Bagh, Block F, Okhla, New Delhi, Delhi 110025",
    "latitude": 28.5424577,
    "longitude": 77.3005677,
    "rating": 4.3,
    "room": "Sleeping Pods-6 hrs",
    "price": "1346",
    "checkin": "anytime",
    "checkout": "anytime",
    "facilities": "Free toiletries, Parking facility (As Per Availability), Free Wi-Fi, Luggage Storage"
  },
  {
    "name": "Sagar Niwas Homestay",
    "address": "Fortis escorts hospital, 70, Sarai Jullena, New Friends Colony, New Delhi, Delhi 110025",
    "latitude": 28.5591644,
    "longitude": 77.2719838,
    "rating": 3.5,
    "room": "Luxary Double Room",
    "price": "17479",
    "checkin": "07:00",
    "checkout": "13:00",
    "facilities": "Front Desk, Free toiletries, Public Restroom, Parking facility (As Per Availability)"
  },
  {
    "name": "Hotel O Kailash Inn",
    "address": "B-80, Iskcon Temple Rd, Prakash Mohalla, Sant Nagar, East of Kailash, New Delhi, Delhi 110065",
    "latitude": 28.5560872,
    "longitude": 77.2506439,
    "rating": 4.6,
    "room": "Sleeping Pods-12 hrs|Sleeping Pods-6 hrs",
    "price": "541|1981",
    "checkin": "anytime",
    "checkout": "anytime",
    "facilities": "Free Wi-Fi, Public Restroom"
  },
  {
    "name": "FabHotel NP International",
    "address": "Gali No: 13, 1432-D, Govindpuri Rd, Kalkaji, New Delhi, Delhi 110019",
    "latitude": 28.5321108,
    "longitude": 77.2636395,
    "rating": 3.4,
    "room": "Male Dormitory-6 hrs|Male Dormitory-3 hrs",
    "price": "1356|1405",
    "checkin": "anytime",
    "checkout": "anytime",
    "facilities": "Front Desk, Free Wi-Fi, Public Restroom, Free toiletries, Luggage Storage"
  },
  {
    "name": "Hotel Admire Inn",
    "address": "7B, Dr, 7 B, CV Raman Marg, Block D, Friends Colony East, New Friends Colony, New Delhi, Delhi 110065",
    "latitude": 28.5703387,
    "longitude": 77.2669263,
    "rating": 4.7,
    "room": "Male Dormitory-24 hrs|Male Dormitory-3 hrs",
    "price": "902|667",
    "checkin": "anytime",
    "checkout": "anytime",
    "facilities": "Parking facility (As Per Availability), Public Restroom, Free toiletries, Free Wi-Fi"
  },
  {
    "name": "Rajput Guest House",
    "address": "H6RX+3XV, Near Gate No-2, Nizamuddin Railway Station, 22-A, Nagli Rajapur, Nizamuddin East, New Delhi, Delhi 110013",
    "latitude": 28.588968,
    "longitude": 77.255495,
    "rating": 4.3,
    "room": "Luxary Single Room|Luxary Double Room",
    "price": "6911|15677",
    "checkin": "11:00",
    "checkout": "12:00",
    "facilities": "Free Wi-Fi, Free toiletries, Front Desk, Public Restroom, Parking facility (As Per Availability)"
  },
  {
    "name": "OYO Deurali Dx Guest House",
    "address": "no -3, Razpura Nangali, 13, Sarai Kale Khan Rd, Block C, Nagli Rajapur, Nizamuddin East, New Delhi, Delhi 110013",
    "latitude": 28.5902591,
    "longitude": 77.2559452,
    "rating": 4.7,
    "room": "Sleeping Pods-3 hrs|Sleeping Pods-6 hrs",
    "price": "958|1656",
    "checkin": "anytime",
    "checkout": "anytime",
    "facilities": "Free Wi-Fi, Front Desk, Luggage Storage, Parking facility (As Per Availability)"
  },
  {
    "name": "Hotel River View",
    "address": null,
    "latitude": 28.5572348,
    "longitude": 77.2966881,
    "rating": 4.9,
    "room": "Sleeping Pods-24 hrs|Sleeping Pods-6 hrs|Sleeping Pods-3 hrs",
    "price": "550|503|1890",
    "checkin": "anytime",
    "checkout": "anytime",
    "facilities": "Free toiletries, Front Desk, Luggage Storage"
  },
  {
    "name": "A R Residency",
    "address": null,
    "latitude": 28.5607222,
    "longitude": 77.2926908,
    "rating": 3.7,
    "room": "Sleeping Pods-12 hrs|Sleeping Pods-6 hrs|Sleeping Pods-24 hrs|Sleeping Pods-3 hrs",
    "price": "1559|1025|880|1368",
    "checkin": "anytime",
    "checkout": "anytime",
    "facilities": "Luggage Storage, Parking facility (As Per Availability), Front Desk, Free toiletries, Public Restroom"
  },
  {
    "name": "Townhouse OAK The ICS Hotel Okhla",
    "address": null,
    "latitude": 28.561597,
    "longitude": 77.292545,
    "rating": 3.6,
    "room": "Sleeping Pods-12 hrs|Sleeping Pods-24 hrs",
    "price": "1071|1962",
    "checkin": "anytime",
    "checkout": "anytime",
    "facilities": "Front Desk, Luggage Storage, Free toiletries"
  },
  {
    "name": "FabExpress The Paradise",
    "address": null,
    "latitude": 28.542751,
    "longitude": 77.301876,
    "rating": 4.8,
    "room": "Luxary Double Room|Luxary Single Room",
    "price": "19751|5179",
    "checkin": "10:00",
    "checkout": "14:00",
    "facilities": "Public Restroom, Front Desk, Free Wi-Fi"
  },
  {
    "name": "HR Grand Hotel",
    "address": null,
    "latitude": 28.5448673,
    "longitude": 77.2904359,
    "rating": 3.7,
    "room": "Luxary Double Room|Female Dormitory-24 hrs|Female Dormitory-6 hrs|Female Dormitory-3 hrs|Female Dormitory-12 hrs",
    "price": "17231|532|1307|956|846",
    "checkin": "anytime",
    "checkout": "anytime",
    "facilities": "Luggage Storage, Front Desk, Parking facility (As Per Availability), Public Restroom, Free toiletries"
  },
  {
    "name": "Jashn Inn",
    "address": null,
    "latitude": 28.5421955,
    "longitude": 77.2932762,
    "rating": 5.0,
    "room": "Male Dormitory-12 hrs|Male Dormitory-6 hrs|Female Dormitory-3 hrs",
    "price": "1126|1064|1535",
    "checkin": "anytime",
    "checkout": "anytime",
    "facilities": "Free Wi-Fi, Free toiletries, Luggage Storage"
  },
  {
    "name": "Emblem Hotel New Friends Colony New Delhi",
    "address": null,
    "latitude": 28.5748314,
    "longitude": 77.2642944,
    "rating": 2.7,
    "room": "Standard Double|Male Dormitory-3 hrs|Male Dormitory-24 hrs|Female Dormitory-24 hrs",
    "price": "4357|1944|705|551",
    "checkin": "anytime",
    "checkout": "anytime",
    "facilities": "Parking facility (As Per Availability), Free Wi-Fi, Free toiletries, Public Restroom, Front Desk"
  },
  {
    "name": "Hotel Centrum",
    "address": null,
    "latitude": 28.5691364,
    "longitude": 77.2676851,
    "rating": 4.1,
    "room": "Luxary Double Room|Standard Double|Luxary Single Room",
    "price": "19685|6596|6379",
    "checkin": "09:00",
    "checkout": "11:00",
    "facilities": "Public Restroom, Free Wi-Fi, Parking facility (As Per Availability)"
  },
  {
    "name": "River View Restaurant",
    "address": null,
    "latitude": 28.5572802,
    "longitude": 77.2967244,
    "rating": 3.7,
    "room": "Standard Double|Luxary Double Room|Luxary Single Room",
    "price": "4162|15464|7003",
    "checkin": "11:00",
    "checkout": "12:00",
    "facilities": "Parking facility (As Per Availability), Free Wi-Fi, Luggage Storage"
  },
  {
    "name": "Hotel O Metro Residency",
    "address": null,
    "latitude": 28.5412039,
    "longitude": 77.2598241,
    "rating": 3.3,
    "room": "Female Dormitory-24 hrs|Female Dormitory-12 hrs|Female Dormitory-6 hrs",
    "price": "1738|1563|1126",
    "checkin": "anytime",
    "checkout": "anytime",
    "facilities": "Luggage Storage, Parking facility (As Per Availability)"
  },
  {
    "name": "OM RESIDENCY NEAR LOTUS TEMPLE NEAR BY BIKANER SWEET",
    "address": null,
    "latitude": 28.5559928,
    "longitude": 77.2503961,
    "rating": 3.5,
    "room": "Luxary Double Room",
    "price": "16576",
    "checkin": "12:00",
    "checkout": "12:00",
    "facilities": "Public Restroom, Parking facility (As Per Availability), Free toiletries"
  },
  {
    "name": "FabHotel Le Grand - Hotel in Kalkaji, New Delhi",
    "address": null,
    "latitude": 28.5367585,
    "longitude": 77.2577414,
    "rating": 4.3,
    "room": "Luxary Double Room",
    "price": "16840",
    "checkin": "11:00",
    "checkout": "14:00",
    "facilities": "Free toiletries, Parking facility (As Per Availability)"
  },
  {
    "name": "Moustache Delhi",
    "address": null,
    "latitude": 28.5659215,
    "longitude": 77.2709716,
    "rating": 4.9,
    "room": "Standard Double",
    "price": "3253",
    "checkin": "10:00",
    "checkout": "14:00",
    "facilities": "Front Desk, Free toiletries, Luggage Storage"
  },
  {
    "name": "LLOYD House",
    "address": null,
    "latitude": 28.5477167,
    "longitude": 77.2566411,
    "rating": 4.8,
    "room": "Standard Double",
    "price": "6935",
    "checkin": "11:00",
    "checkout": "12:00",
    "facilities": "Luggage Storage, Free toiletries, Free Wi-Fi, Public Restroom, Parking facility (As Per Availability), Front Desk"
  },
  {
    "name": "Le Tresor",
    "address": null,
    "latitude": 28.5427869,
    "longitude": 77.2952316,
    "rating": 4.7,
    "room": "Female Dormitory-3 hrs|Female Dormitory-24 hrs|Female Dormitory-6 hrs|Female Dormitory-12 hrs",
    "price": "1133|863|1937|1236",
    "checkin": "anytime",
    "checkout": "anytime",
    "facilities": "Free toiletries, Free Wi-Fi, Front Desk"
  },
  {
    "name": "Capital O Hotel Jasram Heritage",
    "address": null,
    "latitude": 28.5453699,
    "longitude": 77.2916942,
    "rating": 3.3,
    "room": "Standard Double",
    "price": "6034",
    "checkin": "11:00",
    "checkout": "14:00",
    "facilities": "Luggage Storage, Free Wi-Fi, Public Restroom, Parking facility (As Per Availability), Front Desk"
  },
  {
    "name": "Nature's Nest",
    "address": null,
    "latitude": 28.5450805,
    "longitude": 77.2940679,
    "rating": 4.1,
    "room": "Sleeping Pods-6 hrs|Sleeping Pods-24 hrs|Sleeping Pods-3 hrs|Sleeping Pods-12 hrs",
    "price": "1323|1264|1385|1759",
    "checkin": "anytime",
    "checkout": "anytime",
    "facilities": "Free Wi-Fi, Front Desk, Luggage Storage, Free toiletries, Parking facility (As Per Availability)"
  },
  {
    "name": "Saltstayz Select",
    "address": null,
    "latitude": 28.5560713,
    "longitude": 77.2708244,
    "rating": 4.7,
    "room": "Standard Double|Luxary Single Room|Luxary Double Room|Male Dormitory-12 hrs|Female Dormitory-24 hrs",
    "price": "5735|6875|15762|797|1851",
    "checkin": "anytime",
    "checkout": "anytime",
    "facilities": "Free toiletries, Luggage Storage, Free Wi-Fi, Parking facility (As Per Availability), Public Restroom, Front Desk"
  },
  {
    "name": "Le Tresor",
    "address": "132, near DAV Public School, Pocket 1, Jasola Vihar, New Delhi, Delhi 110025",
    "latitude": 28.5427869,
    "longitude": 77.2952316,
    "rating": 3.8,
    "room": "Female Dormitory-3 hrs|Female Dormitory-24 hrs|Female Dormitory-12 hrs|Female Dormitory-6 hrs",
    "price": "1330|506|1270|633",
    "checkin": "anytime",
    "checkout": "anytime",
    "facilities": "Free toiletries, Front Desk"
  },
  {
    "name": "raj hotel vip",
    "address": null,
    "latitude": 28.5716188,
    "longitude": 77.327564,
    "rating": 3.9,
    "room": "Sleeping Pods-24 hrs|Sleeping Pods-3 hrs|Sleeping Pods-12 hrs|Sleeping Pods-6 hrs",
    "price": "1622|1327|1252|1730",
    "checkin": "anytime",
    "checkout": "anytime",
    "facilities": "Free toiletries, Public Restroom"
  },
  {
    "name": "The Athena Hotel",
    "address": "Villa No. 19, Eastern Ave, Block E, Maharani Bagh, New Friends Colony, New Delhi, Delhi 110065",
    "latitude": 28.5718119,
    "longitude": 77.2660447,
    "rating": 4.2,
    "room": "Standard Double|Luxary Double Room|Luxary Single Room",
    "price": "3690|15841|6672",
    "checkin": "11:00",
    "checkout": "14:00",
    "facilities": "Public Restroom, Front Desk, Free Wi-Fi"
  },
  {
    "name": "Hotel Raj Palace",
    "address": null,
    "latitude": 28.5338214,
    "longitude": 77.2601183,
    "rating": 4.5,
    "room": "Luxary Double Room",
    "price": "18754",
    "checkin": "12:00",
    "checkout": "13:00",
    "facilities": "Free toiletries, Free Wi-Fi, Front Desk, Parking facility (As Per Availability), Luggage Storage, Public Restroom"
  },
  {
    "name": "The Metro Star Hotel",
    "address": null,
    "latitude": 28.5491675,
    "longitude": 77.2944181,
    "rating": 3.4,
    "room": "Female Dormitory-24 hrs|Female Dormitory-6 hrs|Female Dormitory-3 hrs",
    "price": "1920|1498|1136",
    "checkin": "anytime",
    "checkout": "anytime",
    "facilities": "Luggage Storage, Free toiletries, Public Restroom, Front Desk, Free Wi-Fi"
  },
  {
    "name": "New Rajdhani Inn| Hotel in Vinobapuri | Best Hotel in Lajpat Nagar",
    "address": null,
    "latitude": 28.5695372,
    "longitude": 77.2520966,
    "rating": 4.1,
    "room": "Sleeping Pods-24 hrs|Sleeping Pods-12 hrs|Sleeping Pods-3 hrs",
    "price": "954|552|790",
    "checkin": "anytime",
    "checkout": "anytime",
    "facilities": "Parking facility (As Per Availability), Public Restroom, Front Desk, Free Wi-Fi, Free toiletries, Luggage Storage"
  },
  {
    "name": "Hotel Samrat Residency",
    "address": null,
    "latitude": 28.5820083,
    "longitude": 77.2509466,
    "rating": 4.8,
    "room": "Luxary Double Room|Luxary Single Room|Standard Double",
    "price": "17080|7597|6080",
    "checkin": "10:00",
    "checkout": "11:00",
    "facilities": "Free toiletries, Public Restroom, Luggage Storage, Front Desk"
  },
  {
    "name": "HOTEL RAMPAL PALACE",
    "address": "plot no 81, Jasola, Jasola Vihar, New Delhi, Delhi 110025",
    "latitude": 28.5457673,
    "longitude": 77.2920194,
    "rating": 2.9,
    "room": "Sleeping Pods-24 hrs|Sleeping Pods-6 hrs|Sleeping Pods-3 hrs",
    "price": "554|1474|1069",
    "checkin": "anytime",
    "checkout": "anytime",
    "facilities": "Parking facility (As Per Availability), Luggage Storage, Free toiletries, Front Desk"
  },
  {
    "name": "Surya Inn",
    "address": "T-83, Mathura Rd, Bhogal, New Delhi, Delhi 110014",
    "latitude": 28.5831366,
    "longitude": 77.2507496,
    "rating": 4.6,
    "room": "Male Dormitory-24 hrs|Male Dormitory-12 hrs|Male Dormitory-6 hrs|Female Dormitory-24 hrs|Female Dormitory-12 hrs|Female Dormitory-6 hrs|Female Dormitory-3 hrs",
    "price": "1106|1037|745|1257|1754|2000|1975",
    "checkin": "anytime",
    "checkout": "anytime",
    "facilities": "Free toiletries, Front Desk, Public Restroom, Luggage Storage, Parking facility (As Per Availability), Free Wi-Fi"
  },
  {
    "name": "Merriment Alpha",
    "address": null,
    "latitude": 28.5808837,
    "longitude": 77.3424972,
    "rating": 3.7,
    "room": "Sleeping Pods-3 hrs|Sleeping Pods-24 hrs",
    "price": "1094|1411",
    "checkin": "anytime",
    "checkout": "anytime",
    "facilities": "Front Desk, Free toiletries, Free Wi-Fi, Public Restroom, Parking facility (As Per Availability), Luggage Storage"
  },
  {
    "name": "Flagship Mohan Villa Near Lotus Temple",
    "address": null,
    "latitude": 28.555992,
    "longitude": 77.250395,
    "rating": 4.2,
    "room": "Luxary Single Room|Male Dormitory-6 hrs",
    "price": "6004|614",
    "checkin": "anytime",
    "checkout": "anytime",
    "facilities": "Parking facility (As Per Availability), Luggage Storage, Front Desk, Free Wi-Fi, Public Restroom"
  },
  {
    "name": "Hotel Sunrise Ecostay",
    "address": null,
    "latitude": 28.554938,
    "longitude": 77.248438,
    "rating": 4.4,
    "room": "Sleeping Pods-24 hrs|Sleeping Pods-12 hrs",
    "price": "607|738",
    "checkin": "anytime",
    "checkout": "anytime",
    "facilities": "Free toiletries, Parking facility (As Per Availability), Free Wi-Fi, Front Desk"
  },
  {
    "name": "Roomshala 072 Hotel Starlight",
    "address": null,
    "latitude": 28.5736376,
    "longitude": 77.2559832,
    "rating": 4.0,
    "room": "Luxary Single Room|Luxary Double Room",
    "price": "7242|19404",
    "checkin": "10:00",
    "checkout": "14:00",
    "facilities": "Parking facility (As Per Availability), Free toiletries, Luggage Storage"
  },
  {
    "name": "Roomshala 072 Hotel Starlight",
    "address": "D-144 UPPER GROUND FLOOR, Hari Nagar Ashram, New Delhi, Delhi 110014",
    "latitude": 28.5736376,
    "longitude": 77.2559832,
    "rating": 4.1,
    "room": "Standard Double|Male Dormitory-6 hrs|Male Dormitory-24 hrs|Female Dormitory-3 hrs|Female Dormitory-12 hrs",
    "price": "5788|595|1651|918|1313",
    "checkin": "anytime",
    "checkout": "anytime",
    "facilities": "Public Restroom, Parking facility (As Per Availability)"
  },
  {
    "name": "FabHotel Sunrise Villa",
    "address": null,
    "latitude": 28.53678,
    "longitude": 77.25778,
    "rating": 5.0,
    "room": "Female Dormitory-6 hrs",
    "price": "572",
    "checkin": "anytime",
    "checkout": "anytime",
    "facilities": "Luggage Storage, Public Restroom, Front Desk"
  },
  {
    "name": "Hotel KRYC luxury living",
    "address": null,
    "latitude": 28.542376,
    "longitude": 77.2942966,
    "rating": 5.0,
    "room": "Female Dormitory-3 hrs",
    "price": "1714",
    "checkin": "anytime",
    "checkout": "anytime",
    "facilities": "Parking facility (As Per Availability), Public Restroom, Front Desk"
  },
  {
    "name": "The Nanee Suites",
    "address": null,
    "latitude": 28.539941,
    "longitude": 77.294408,
    "rating": 4.1,
    "room": "Sleeping Pods-3 hrs",
    "price": "1787",
    "checkin": "anytime",
    "checkout": "anytime",
    "facilities": "Free Wi-Fi, Public Restroom, Front Desk, Parking facility (As Per Availability)"
  },
  {
    "name": "Hotel O Kalkaji Residency Bnb Near Lotus Temple",
    "address": null,
    "latitude": 28.540291,
    "longitude": 77.2613312,
    "rating": 4.2,
    "room": "Male Dormitory-12 hrs|Male Dormitory-24 hrs|Male Dormitory-3 hrs|Male Dormitory-6 hrs|Female Dormitory-6 hrs",
    "price": "1622|526|670|1287|1920",
    "checkin": "anytime",
    "checkout": "anytime",
    "facilities": "Public Restroom, Parking facility (As Per Availability), Luggage Storage, Free Wi-Fi, Free toiletries, Front Desk"
  },
  {
    "name": "Culture hotel",
    "address": "H1, H Block, Block D, Sector-45, Noida, Uttar Pradesh 201303",
    "latitude": 28.5509831,
    "longitude": 77.3428937,
    "rating": 4.6,
    "room": "Luxary Double Room|Luxary Single Room",
    "price": "19944|7376",
    "checkin": "11:00",
    "checkout": "14:00",
    "facilities": "Parking facility (As Per Availability), Free toiletries, Luggage Storage, Public Restroom"
  },
  {
    "name": "Hotel O Crown",
    "address": null,
    "latitude": 28.5717649,
    "longitude": 77.3251115,
    "rating": 5.0,
    "room": "Sleeping Pods-6 hrs|Sleeping Pods-24 hrs|Sleeping Pods-12 hrs",
    "price": "884|610|692",
    "checkin": "anytime",
    "checkout": "anytime",
    "facilities": "Public Restroom, Parking facility (As Per Availability), Free Wi-Fi, Luggage Storage"
  },
  {
    "name": "Dev Residency",
    "address": "2A Main Market, SOUTH, near MCD Despencry, Madanpur Khadar, New Delhi, Delhi 110076",
    "latitude": 28.533995,
    "longitude": 77.2984998,
    "rating": 4.1,
    "room": "Male Dormitory-6 hrs|Male Dormitory-24 hrs|Male Dormitory-12 hrs|Male Dormitory-3 hrs",
    "price": "1708|704|1323|995",
    "checkin": "anytime",
    "checkout": "anytime",
    "facilities": "Front Desk, Luggage Storage"
  },
  {
    "name": "Hotel O KRISHNA VILLA",
    "address": null,
    "latitude": 28.5355155,
    "longitude": 77.2679222,
    "rating": 3.4,
    "room": "Female Dormitory-6 hrs|Female Dormitory-24 hrs|Female Dormitory-3 hrs",
    "price": "967|1877|1900",
    "checkin": "anytime",
    "checkout": "anytime",
    "facilities": "Front Desk, Parking facility (As Per Availability), Free Wi-Fi, Public Restroom, Luggage Storage, Free toiletries"
  },
  {
    "name": "Staybook@SouthDelhi",
    "address": null,
    "latitude": 28.5617472,
    "longitude": 77.2557077,
    "rating": 3.4,
    "room": "Sleeping Pods-6 hrs|Sleeping Pods-3 hrs|Sleeping Pods-24 hrs|Sleeping Pods-12 hrs",
    "price": "961|700|749|1070",
    "checkin": "anytime",
    "checkout": "anytime",
    "facilities": "Free toiletries, Parking facility (As Per Availability), Front Desk, Public Restroom"
  },
  {
    "name": "FabHotel GK Residency - Hotel Near Tuglakabad Railway Station, New Delhi",
    "address": "Chungi No 2, Lal Kuan, New Delhi, Delhi 110044",
    "latitude": 28.50142,
    "longitude": 77.28287,
    "rating": 4.2,
    "room": "Sleeping Pods-12 hrs|Sleeping Pods-24 hrs|Sleeping Pods-6 hrs|Sleeping Pods-3 hrs",
    "price": "515|693|1065|734",
    "checkin": "anytime",
    "checkout": "anytime",
    "facilities": "Free Wi-Fi, Front Desk"
  },
  {
    "name": "Crowne Plaza New Delhi Okhla by IHG",
    "address": "Community Centre, Plot No. 1, Pocket A, Okhla Phase I, Okhla Industrial Estate, New Delhi, Delhi 110020",
    "latitude": 28.5290208,
    "longitude": 77.2723884,
    "rating": 4.6,
    "room": "Standard Double|Luxary Double Room|Male Dormitory-12 hrs|Male Dormitory-6 hrs|Male Dormitory-24 hrs|Male Dormitory-3 hrs",
    "price": "3811|15204|1480|1501|1522|936",
    "checkin": "anytime",
    "checkout": "anytime",
    "facilities": "Parking facility (As Per Availability), Public Restroom, Luggage Storage, Free toiletries, Free Wi-Fi"
  },
  {
    "name": "Goldfinch Hotel Delhi NCR",
    "address": "Lakkarpur, Sector 39, Faridabad, Haryana 121010",
    "latitude": 28.4876185,
    "longitude": 77.2903032,
    "rating": 3.1,
    "room": "Luxary Double Room|Standard Double",
    "price": "15970|6126",
    "checkin": "07:00",
    "checkout": "14:00",
    "facilities": "Free toiletries, Parking facility (As Per Availability), Front Desk"
  },
  {
    "name": "FabHotel Le Grand - Hotel in Kalkaji, New Delhi",
    "address": "L12, Main Rd, Block L, Kalkaji, New Delhi, Delhi 110019",
    "latitude": 28.5367585,
    "longitude": 77.2577414,
    "rating": 4.5,
    "room": "Luxary Single Room|Standard Double",
    "price": "7582|3796",
    "checkin": "07:00",
    "checkout": "11:00",
    "facilities": "Public Restroom, Parking facility (As Per Availability), Luggage Storage, Free toiletries"
  },
  {
    "name": "Lake View Huts and Resort",
    "address": "F7JP+Q4M, Lakewood city, Surajkund, Faridabad, Haryana 121010",
    "latitude": 28.4819505,
    "longitude": 77.2852963,
    "rating": 4.1,
    "room": "Female Dormitory-3 hrs|Female Dormitory-12 hrs|Female Dormitory-24 hrs",
    "price": "1925|1436|1239",
    "checkin": "anytime",
    "checkout": "anytime",
    "facilities": "Front Desk, Public Restroom, Free Wi-Fi, Luggage Storage, Free toiletries"
  },
  {
    "name": "Hotel Crystal Residency",
    "address": "A, 20, Devli Rd, Pocket A, Duggal Colony, Khanpur, New Delhi, Delhi 110080",
    "latitude": 28.5112883,
    "longitude": 77.2327246,
    "rating": 4.8,
    "room": "Sleeping Pods-3 hrs|Sleeping Pods-6 hrs",
    "price": "656|1349",
    "checkin": "anytime",
    "checkout": "anytime",
    "facilities": "Parking facility (As Per Availability), Front Desk, Luggage Storage, Free toiletries, Free Wi-Fi"
  },
  {
    "name": "Royal Imperio",
    "address": "Eros Garden, opposite supreme hospital, Charmwood Village, Sector 39, Faridabad, Haryana 121009",
    "latitude": 28.4922211,
    "longitude": 77.291728,
    "rating": 3.8,
    "room": "Male Dormitory-24 hrs",
    "price": "1184",
    "checkin": "anytime",
    "checkout": "anytime",
    "facilities": "Free toiletries, Free Wi-Fi, Front Desk, Public Restroom, Parking facility (As Per Availability)"
  },
  {
    "name": "Hermitage Huts",
    "address": "F7MP+6QH, (A Unit of Haryana Tourism Corporation Ltd.) Surajkund, Faridabad, Haryana 121009",
    "latitude": 28.4830633,
    "longitude": 77.286976,
    "rating": 3.9,
    "room": "Female Dormitory-3 hrs|Female Dormitory-12 hrs|Female Dormitory-6 hrs",
    "price": "1118|1840|1581",
    "checkin": "anytime",
    "checkout": "anytime",
    "facilities": "Free toiletries, Front Desk, Public Restroom"
  },
  {
    "name": "Sunbird Resorts",
    "address": "F7PJ+4RX, Lakewood city, Surajkund, Faridabad, Haryana 121010",
    "latitude": 28.4853534,
    "longitude": 77.2820957,
    "rating": 4.7,
    "room": "Luxary Single Room|Luxary Double Room|Male Dormitory-12 hrs|Male Dormitory-3 hrs|Male Dormitory-24 hrs|Female Dormitory-3 hrs|Female Dormitory-24 hrs|Female Dormitory-12 hrs|Female Dormitory-6 hrs",
    "price": "6046|17107|1907|1405|1029|1533|521|1865|796",
    "checkin": "anytime",
    "checkout": "anytime",
    "facilities": "Luggage Storage, Free Wi-Fi, Free toiletries, Parking facility (As Per Availability)"
  },
  {
    "name": "Design Galleries",
    "address": "F7MM+PRV, Unnamed Road, Lakewood city, Surajkund, Faridabad, Haryana 121010",
    "latitude": 28.4843503,
    "longitude": 77.2845321,
    "rating": 4.5,
    "room": "Sleeping Pods-3 hrs|Sleeping Pods-12 hrs|Sleeping Pods-6 hrs",
    "price": "1680|1710|1928",
    "checkin": "anytime",
    "checkout": "anytime",
    "facilities": "Free Wi-Fi, Free toiletries, Public Restroom, Front Desk, Parking facility (As Per Availability)"
  },
  {
    "name": "G K COMPLEX / G K RESIDENCY PUL PEHLADPUR",
    "address": "309/ 2, Pul Pehladpur, New Delhi, Delhi 110044",
    "latitude": 28.5012769,
    "longitude": 77.2829671,
    "rating": 4.6,
    "room": "Standard Double|Luxary Double Room",
    "price": "5211|19910",
    "checkin": "10:00",
    "checkout": "12:00",
    "facilities": "Free toiletries, Luggage Storage, Public Restroom, Front Desk, Parking facility (As Per Availability)"
  },
  {
    "name": "TRIOM HOTEL",
    "address": "B/147, Mehrauli - Badarpur Rd, near shiv mandir, Sharma Market, Pulpharadpur, Block A, Pul Pehladpur, New Delhi, Delhi 110044",
    "latitude": 28.4993929,
    "longitude": 77.2926917,
    "rating": 3.4,
    "room": "Sleeping Pods-6 hrs|Sleeping Pods-24 hrs|Sleeping Pods-12 hrs",
    "price": "1116|1087|617",
    "checkin": "anytime",
    "checkout": "anytime",
    "facilities": "Front Desk, Free toiletries, Free Wi-Fi"
  },
  {
    "name": "Hotel Raas Near Crown Plaza",
    "address": "TA , 104, near Crown Plaza, Kalkaji Extension, Block A 8, Tughlakabad Extension, Kalkaji, New Delhi, Delhi 110044",
    "latitude": 28.526315,
    "longitude": 77.2580939,
    "rating": 4.6,
    "room": "Sleeping Pods-24 hrs|Sleeping Pods-12 hrs|Sleeping Pods-3 hrs",
    "price": "1464|1920|1703",
    "checkin": "anytime",
    "checkout": "anytime",
    "facilities": "Public Restroom, Parking facility (As Per Availability)"
  },
  {
    "name": "FabHotel Sunrise Villa",
    "address": "1st, 2nd and 3rd Floor, L-13, Block L, Kalkaji, New Delhi, Delhi 110019",
    "latitude": 28.53678,
    "longitude": 77.25778,
    "rating": 3.6,
    "room": "Sleeping Pods-12 hrs|Sleeping Pods-3 hrs|Sleeping Pods-6 hrs",
    "price": "1329|1264|1600",
    "checkin": "anytime",
    "checkout": "anytime",
    "facilities": "Free Wi-Fi, Luggage Storage, Free toiletries, Front Desk, Public Restroom"
  },
  {
    "name": "NP International",
    "address": "G7G6+6RP, Pocket-8, Kalkaji Extension, Block A 8, Tughlakabad Extension, Kalkaji, New Delhi, Delhi 110019",
    "latitude": 28.5255986,
    "longitude": 77.2620823,
    "rating": 2.6,
    "room": "Sleeping Pods-12 hrs|Sleeping Pods-3 hrs|Sleeping Pods-6 hrs",
    "price": "1811|918|1565",
    "checkin": "anytime",
    "checkout": "anytime",
    "facilities": "Public Restroom, Front Desk, Free toiletries, Parking facility (As Per Availability)"
  },
  {
    "name": "FabHotel NK Residency",
    "address": "A- 25, Pocket, 8, Pocket-8, Kalkaji Extension, Block A 8, Kalkaji Extension, Kalkaji, New Delhi, Delhi 110019",
    "latitude": 28.5253808,
    "longitude": 77.2629655,
    "rating": 3.2,
    "room": "Female Dormitory-24 hrs|Female Dormitory-12 hrs|Female Dormitory-6 hrs|Female Dormitory-3 hrs",
    "price": "642|1187|921|504",
    "checkin": "anytime",
    "checkout": "anytime",
    "facilities": "Parking facility (As Per Availability), Front Desk, Luggage Storage"
  },
  {
    "name": "Hotel View - A Boutique Hotel",
    "address": "HN-19 1, Bypass Rd, New Delhi, 110037",
    "latitude": 28.4872896,
    "longitude": 77.3058834,
    "rating": 4.8,
    "room": "Standard Double|Luxary Double Room|Luxary Single Room",
    "price": "5189|16799|7413",
    "checkin": "11:00",
    "checkout": "13:00",
    "facilities": "Free Wi-Fi, Luggage Storage"
  },
  {
    "name": "Blu Lagoon Inn",
    "address": "167, near shiv mandir, Khirki Extension, Malviya Nagar, New Delhi, Delhi 110017",
    "latitude": 28.5310479,
    "longitude": 77.2186042,
    "rating": 5.0,
    "room": "Luxary Single Room|Male Dormitory-24 hrs|Female Dormitory-12 hrs|Female Dormitory-24 hrs|Female Dormitory-6 hrs|Female Dormitory-3 hrs",
    "price": "6692|1740|1373|1912|1308|1993",
    "checkin": "anytime",
    "checkout": "anytime",
    "facilities": "Luggage Storage, Public Restroom, Free Wi-Fi"
  },
  {
    "name": "Hotel Crown Inn",
    "address": "House No. 3, Chowk Surajkund Road, near Anangpur, opposite Omaxe Hills, Anangpur, Faridabad, Haryana 121003",
    "latitude": 28.4602074,
    "longitude": 77.2840585,
    "rating": 4.4,
    "room": "Male Dormitory-24 hrs|Male Dormitory-3 hrs|Male Dormitory-6 hrs|Male Dormitory-12 hrs|Female Dormitory-6 hrs|Female Dormitory-3 hrs",
    "price": "1176|1353|1915|1826|1329|1343",
    "checkin": "anytime",
    "checkout": "anytime",
    "facilities": "Parking facility (As Per Availability), Public Restroom, Luggage Storage, Free toiletries"
  },
  {
    "name": "Hotel O My Comfortable",
    "address": "Ta-20a/1, opposite Reliance Fresh, Tughlakabad Extension, Tughlakabad, New Delhi, Delhi 110019",
    "latitude": 28.526098,
    "longitude": 77.2575239,
    "rating": 4.5,
    "room": "Sleeping Pods-6 hrs|Sleeping Pods-3 hrs|Sleeping Pods-12 hrs",
    "price": "1577|1486|774",
    "checkin": "anytime",
    "checkout": "anytime",
    "facilities": "Free Wi-Fi, Front Desk, Free toiletries, Parking facility (As Per Availability), Public Restroom"
  },
  {
    "name": "Super OYO White House",
    "address": "Street No 1, T-A 18, south, near Aggarwal properties khana khazana, DDA Flats Kalkaji, Block J 2, Kalkaji, New Delhi, Delhi 110019",
    "latitude": 28.5260352,
    "longitude": 77.2555146,
    "rating": 3.7,
    "room": "Luxary Double Room",
    "price": "18941",
    "checkin": "12:00",
    "checkout": "11:00",
    "facilities": "Luggage Storage, Front Desk, Parking facility (As Per Availability), Public Restroom, Free toiletries"
  },
  {
    "name": "The Orion Plaza Nehru Place",
    "address": "CC26, Block G, Nehru Enclave, Kalkaji, New Delhi, Delhi 110019",
    "latitude": 28.5470262,
    "longitude": 77.2537675,
    "rating": 4.3,
    "room": "Standard Double|Luxary Double Room|Male Dormitory-3 hrs|Male Dormitory-24 hrs",
    "price": "6910|19014|1350|1699",
    "checkin": "anytime",
    "checkout": "anytime",
    "facilities": "Parking facility (As Per Availability), Luggage Storage, Free toiletries, Public Restroom, Free Wi-Fi"
  },
  {
    "name": "Hotel Khanpur Inn",
    "address": "Sona Model P School, C 7A, Khanpur Extension, Khanpur, New Delhi, Delhi 110080",
    "latitude": 28.5119241,
    "longitude": 77.2346136,
    "rating": 4.1,
    "room": "Luxary Single Room|Luxary Double Room",
    "price": "5755|17864",
    "checkin": "07:00",
    "checkout": "11:00",
    "facilities": "Luggage Storage, Parking facility (As Per Availability), Front Desk, Free Wi-Fi, Public Restroom, Free toiletries"
  },
  {
    "name": "Hotel O Dream Palace",
    "address": "HR 151 A/7, opposite DDA Janta Flat, Block A, Pul Pehladpur, New Delhi, Delhi 110044",
    "latitude": 28.4980862,
    "longitude": 77.2909235,
    "rating": 3.4,
    "room": "Luxary Single Room|Luxary Double Room",
    "price": "5130|16396",
    "checkin": "11:00",
    "checkout": "13:00",
    "facilities": "Luggage Storage, Parking facility (As Per Availability), Free Wi-Fi, Public Restroom, Free toiletries"
  },
  {
    "name": "Hotel O Premium Rooms",
    "address": "A, 138, Mehrauli - Badarpur Rd, Khanpur Extension, Khanpur, New Delhi, Delhi 110062",
    "latitude": 28.5144042,
    "longitude": 77.231649,
    "rating": 4.7,
    "room": "Luxary Single Room|Standard Double",
    "price": "6154|5655",
    "checkin": "07:00",
    "checkout": "13:00",
    "facilities": "Free toiletries, Luggage Storage, Public Restroom, Free Wi-Fi"
  },
  {
    "name": "Hotel O Ocean Plaza",
    "address": "Bus Stand, TA-208A TA-208A Kalka Ji, 429, Tughlakabad Extension, New Delhi, Delhi 110019",
    "latitude": 28.5308053,
    "longitude": 77.254073,
    "rating": 4.2,
    "room": "Female Dormitory-6 hrs",
    "price": "837",
    "checkin": "anytime",
    "checkout": "anytime",
    "facilities": "Front Desk, Free Wi-Fi, Free toiletries"
  },
  {
    "name": "Hotel Charmwood Inn",
    "address": "Charmwood, Lakkarpur, Faridabad, Haryana 121009",
    "latitude": 28.48985,
    "longitude": 77.2917185,
    "rating": 4.5,
    "room": "Sleeping Pods-12 hrs|Sleeping Pods-3 hrs|Sleeping Pods-24 hrs",
    "price": "1510|1972|1060",
    "checkin": "anytime",
    "checkout": "anytime",
    "facilities": "Public Restroom, Free Wi-Fi, Parking facility (As Per Availability)"
  },
  {
    "name": "POP Z-heart Near Tughlakabad Station Metro Station",
    "address": "D28, Block B, Vishwakarma Colony, Tughlakabad, Delhi, New Delhi, Delhi 110044",
    "latitude": 28.497568,
    "longitude": 77.283984,
    "rating": 5.0,
    "room": "Sleeping Pods-24 hrs|Sleeping Pods-6 hrs|Sleeping Pods-3 hrs|Sleeping Pods-12 hrs",
    "price": "545|1115|1864|1505",
    "checkin": "anytime",
    "checkout": "anytime",
    "facilities": "Parking facility (As Per Availability), Free toiletries, Front Desk, Public Restroom"
  },
  {
    "name": "OYO Flagship Hotel Elite Inn",
    "address": "RZ A/64, RZ A/64, Near Manav Mangal School, Pul Pehlad Pur New Delhi-110044, Delhi, 110019",
    "latitude": 28.4985517,
    "longitude": 77.2962164,
    "rating": 3.1,
    "room": "Luxary Double Room|Luxary Single Room",
    "price": "15172|7071",
    "checkin": "07:00",
    "checkout": "12:00",
    "facilities": "Parking facility (As Per Availability), Free toiletries"
  },
  {
    "name": "Hotel O The Premium Villa",
    "address": "A 20, Road, Pocket A, Devli, Khanpur, New Delhi, Delhi 110080",
    "latitude": 28.5112195,
    "longitude": 77.2326597,
    "rating": 2.6,
    "room": "Standard Double|Luxary Single Room|Female Dormitory-6 hrs|Female Dormitory-24 hrs|Female Dormitory-3 hrs|Female Dormitory-12 hrs",
    "price": "4346|7211|1462|745|817|1949",
    "checkin": "anytime",
    "checkout": "anytime",
    "facilities": "Luggage Storage, Parking facility (As Per Availability), Front Desk, Public Restroom, Free toiletries"
  },
  {
    "name": "Super Townhouse THE ARROW Near Lotus Temple",
    "address": "TA , 104, south, near khana khajana, Kalkaji Extension, Block A 8, Tughlakabad Extension, Tughlakabad, New Delhi, Delhi 110044",
    "latitude": 28.5263069,
    "longitude": 77.2581107,
    "rating": 3.9,
    "room": "Female Dormitory-6 hrs|Female Dormitory-12 hrs|Female Dormitory-24 hrs|Female Dormitory-3 hrs",
    "price": "1000|992|629|1717",
    "checkin": "anytime",
    "checkout": "anytime",
    "facilities": "Free Wi-Fi, Free toiletries, Parking facility (As Per Availability)"
  },
  {
    "name": "Collection O Em Residency Near Tughlakabad Station Metro Station",
    "address": "B - 1, 60 Feet Rd, near Aggarwal Sweets, Pulpharadpur, Block A, Pul Pehladpur, New Delhi, Delhi 110044",
    "latitude": 28.4996164,
    "longitude": 77.2902775,
    "rating": 4.8,
    "room": "Standard Double|Luxary Double Room|Luxary Single Room",
    "price": "3227|16961|6713",
    "checkin": "08:00",
    "checkout": "12:00",
    "facilities": "Front Desk, Free Wi-Fi, Parking facility (As Per Availability), Public Restroom"
  },
  {
    "name": "NUO by jSTa, Greater Kailash",
    "address": "C, 22, S Swaran Singh Bhandari Marg, Greater Kailash-1, C Block, Greater Kailash I, Greater Kailash, New Delhi, Delhi 110048",
    "latitude": 28.5483207,
    "longitude": 77.2379942,
    "rating": 4.7,
    "room": "Female Dormitory-3 hrs|Female Dormitory-6 hrs",
    "price": "859|650",
    "checkin": "anytime",
    "checkout": "anytime",
    "facilities": "Luggage Storage, Free Wi-Fi, Parking facility (As Per Availability)"
  },
  {
    "name": "Townhouse Green park Residency 3",
    "address": "D-112, Josip Broz Tito Marg, Tehsil, Hauz Khas, New Delhi, Delhi 110048",
    "latitude": 28.5617296,
    "longitude": 77.2070642,
    "rating": 2.8,
    "room": "Female Dormitory-24 hrs|Female Dormitory-6 hrs|Female Dormitory-3 hrs|Female Dormitory-12 hrs",
    "price": "1954|1148|1021|1555",
    "checkin": "anytime",
    "checkout": "anytime",
    "facilities": "Front Desk, Free toiletries, Free Wi-Fi, Public Restroom"
  },
  {
    "name": "Jagannath B&B Hotel",
    "address": "G 17/4, South Extension II, Block B, New Delhi, Delhi 110019",
    "latitude": 28.5659472,
    "longitude": 77.2168047,
    "rating": 3.1,
    "room": "Sleeping Pods-3 hrs|Sleeping Pods-6 hrs",
    "price": "1332|1794",
    "checkin": "anytime",
    "checkout": "anytime",
    "facilities": "Free toiletries, Public Restroom, Parking facility (As Per Availability), Luggage Storage, Free Wi-Fi, Front Desk"
  },
  {
    "name": "Hotel O Green Park Residency",
    "address": "gate number 4, metro station, 21D/1Block D, near Gurudwara Green park, Green Park, New Delhi, Delhi 110016",
    "latitude": 28.5591292,
    "longitude": 77.2059404,
    "rating": 2.5,
    "room": "Male Dormitory-12 hrs|Male Dormitory-24 hrs|Male Dormitory-3 hrs|Female Dormitory-3 hrs|Female Dormitory-24 hrs|Female Dormitory-6 hrs|Female Dormitory-12 hrs",
    "price": "1891|1963|880|1810|725|892|1130",
    "checkin": "anytime",
    "checkout": "anytime",
    "facilities": "Parking facility (As Per Availability), Front Desk, Free Wi-Fi"
  },
  {
    "name": "Hotel O Stay Residency",
    "address": "Metro Station, A-60/5, Gate Number 1, near Green Park, Yusuf Sarai, New Delhi, Delhi 110016",
    "latitude": 28.559457,
    "longitude": 77.2074417,
    "rating": 4.4,
    "room": "Sleeping Pods-6 hrs",
    "price": "1116",
    "checkin": "anytime",
    "checkout": "anytime",
    "facilities": "Free Wi-Fi, Front Desk, Parking facility (As Per Availability)"
  },
  {
    "name": "Hotel O Royal Green",
    "address": "Metro Station, Gate Number 1, Green Park, New Delhi, Delhi 110016",
    "latitude": 28.5597505,
    "longitude": 77.2075577,
    "rating": 3.9,
    "room": "Standard Double|Luxary Single Room|Luxary Double Room|Female Dormitory-24 hrs|Female Dormitory-3 hrs|Female Dormitory-12 hrs|Female Dormitory-6 hrs",
    "price": "6409|7409|16422|961|604|1697|1072",
    "checkin": "anytime",
    "checkout": "anytime",
    "facilities": "Parking facility (As Per Availability), Public Restroom, Luggage Storage"
  },
  {
    "name": "Townhouse Green Park Residency 1",
    "address": "60,5,2nd Yusuf Sarai, Green Park, New Delhi, Delhi 110016",
    "latitude": 28.5593853,
    "longitude": 77.2072611,
    "rating": 3.1,
    "room": "Sleeping Pods-6 hrs|Sleeping Pods-3 hrs|Sleeping Pods-12 hrs",
    "price": "754|1897|693",
    "checkin": "anytime",
    "checkout": "anytime",
    "facilities": "Front Desk, Free Wi-Fi, Free toiletries, Luggage Storage, Parking facility (As Per Availability), Public Restroom"
  },
  {
    "name": "Hotel Park Residency",
    "address": "D-1, Block D, Green Park, New Delhi, Delhi 110016",
    "latitude": 28.5573824,
    "longitude": 77.2049912,
    "rating": 3.0,
    "room": "Female Dormitory-12 hrs|Female Dormitory-3 hrs|Female Dormitory-24 hrs|Female Dormitory-6 hrs",
    "price": "1531|594|1622|1004",
    "checkin": "anytime",
    "checkout": "anytime",
    "facilities": "Luggage Storage, Public Restroom, Free toiletries"
  },
  {
    "name": "The Ashtan Sarovar Portico",
    "address": "C 2, Green Park Ext Rd, Block C, Green Park Extension, Green Park, New Delhi, Delhi 110016",
    "latitude": 28.5593385,
    "longitude": 77.2063893,
    "rating": 4.4,
    "room": "Luxary Double Room",
    "price": "18971",
    "checkin": "09:00",
    "checkout": "11:00",
    "facilities": "Front Desk, Free toiletries, Free Wi-Fi"
  },
  {
    "name": "OYO Smart Inn Near Dilli Haat INA",
    "address": "Gate no.4, metro station, 19/2 Yusuf sarai, Mandir waali gali, H No 41, near Green park, Delhi 110016",
    "latitude": 28.5600337,
    "longitude": 77.2066073,
    "rating": 2.8,
    "room": "Standard Double|Luxary Double Room",
    "price": "4525|15635",
    "checkin": "12:00",
    "checkout": "12:00",
    "facilities": "Luggage Storage, Front Desk, Free Wi-Fi, Public Restroom, Parking facility (As Per Availability), Free toiletries"
  },
  {
    "name": "CHANDU INN",
    "address": "13/10, Block Q, Green Park Extension, Yusuf Sarai, New Delhi, Delhi 110016",
    "latitude": 28.5611525,
    "longitude": 77.2068237,
    "rating": 3.1,
    "room": "Sleeping Pods-6 hrs|Sleeping Pods-12 hrs",
    "price": "1787|834",
    "checkin": "anytime",
    "checkout": "anytime",
    "facilities": "Free Wi-Fi, Parking facility (As Per Availability), Public Restroom, Free toiletries, Front Desk"
  },
  {
    "name": "Gautam Nagar Homestay South Delhi",
    "address": "Building No 111, 1st Floor, Sudarshan Cinema Rd, Gautam Nagar, New Delhi, Delhi 110049",
    "latitude": 28.5629943,
    "longitude": 77.2111791,
    "rating": 3.9,
    "room": "Female Dormitory-24 hrs",
    "price": "1522",
    "checkin": "anytime",
    "checkout": "anytime",
    "facilities": "Front Desk, Luggage Storage, Public Restroom"
  },
  {
    "name": "Hauz Khas Retreat",
    "address": "73-A, Hauz Khas Village, Deer Park, Hauz Khas, New Delhi, Delhi 110016",
    "latitude": 28.5533639,
    "longitude": 77.1942516,
    "rating": 3.4,
    "room": "Standard Double|Luxary Single Room|Male Dormitory-12 hrs|Male Dormitory-3 hrs|Female Dormitory-24 hrs",
    "price": "4431|7680|1432|1864|625",
    "checkin": "anytime",
    "checkout": "anytime",
    "facilities": "Parking facility (As Per Availability), Front Desk, Luggage Storage, Free Wi-Fi, Free toiletries, Public Restroom"
  },
  {
    "name": "JRD Exotica || Business Hotel",
    "address": "A-1/284, A-1/284, Chaudhary Harsukh Marg, Block A 1, Nauroji Nagar, Safdarjung Enclave, New Delhi, Delhi 110029",
    "latitude": 28.5669258,
    "longitude": 77.1993095,
    "rating": 3.4,
    "room": "Female Dormitory-3 hrs|Female Dormitory-6 hrs|Female Dormitory-24 hrs",
    "price": "1642|820|713",
    "checkin": "anytime",
    "checkout": "anytime",
    "facilities": "Free Wi-Fi, Front Desk, Public Restroom, Parking facility (As Per Availability)"
  },
  {
    "name": "The Saga Hotel, Green Park | New Delhi",
    "address": "5, Block W, Arjun Nagar, Green Park, New Delhi, Delhi 110016",
    "latitude": 28.5591816,
    "longitude": 77.2006904,
    "rating": 4.1,
    "room": "Sleeping Pods-12 hrs|Sleeping Pods-6 hrs",
    "price": "690|1962",
    "checkin": "anytime",
    "checkout": "anytime",
    "facilities": "Free Wi-Fi, Parking facility (As Per Availability), Free toiletries"
  },
  {
    "name": "Hotel Hauz Khas Fort View",
    "address": "87/B, Hauz Khas Village, Deer Park, Hauz Khas, New Delhi, Delhi 110016",
    "latitude": 28.5532534,
    "longitude": 77.1950975,
    "rating": 3.6,
    "room": "Standard Double|Luxary Double Room|Male Dormitory-3 hrs",
    "price": "4855|19543|1759",
    "checkin": "anytime",
    "checkout": "anytime",
    "facilities": "Parking facility (As Per Availability), Free toiletries, Free Wi-Fi, Front Desk, Luggage Storage"
  },
  {
    "name": "Jagabandhu Guest House",
    "address": "C 55, South Extension II, Block C, New Delhi, Delhi 110049",
    "latitude": 28.567021,
    "longitude": 77.2193198,
    "rating": 3.3,
    "room": "Standard Double|Luxary Single Room|Luxary Double Room|Female Dormitory-6 hrs|Female Dormitory-3 hrs|Female Dormitory-24 hrs|Female Dormitory-12 hrs",
    "price": "3990|6059|19455|1307|1554|856|1613",
    "checkin": "anytime",
    "checkout": "anytime",
    "facilities": "Public Restroom, Parking facility (As Per Availability), Free toiletries, Front Desk"
  },
  {
    "name": "Hotel Southgate/Southgate Banquets",
    "address": "C-18, Green park extension, Block C, Green Park Extension, Green Park, New Delhi, Delhi 110016",
    "latitude": 28.5602678,
    "longitude": 77.2027868,
    "rating": 4.7,
    "room": "Female Dormitory-12 hrs|Female Dormitory-6 hrs",
    "price": "1881|1866",
    "checkin": "anytime",
    "checkout": "anytime",
    "facilities": "Parking facility (As Per Availability), Luggage Storage, Public Restroom, Free Wi-Fi"
  },
  {
    "name": "Collection O New Delhi International Near Dilli Haat Ina",
    "address": "Block Q, Green Park Extension, Green Park, New Delhi, Delhi 110016",
    "latitude": 28.5608494,
    "longitude": 77.2066801,
    "rating": 4.6,
    "room": "Sleeping Pods-3 hrs|Sleeping Pods-6 hrs|Sleeping Pods-24 hrs",
    "price": "1427|1377|790",
    "checkin": "anytime",
    "checkout": "anytime",
    "facilities": "Public Restroom, Free Wi-Fi, Front Desk, Luggage Storage, Parking facility (As Per Availability)"
  },
  {
    "name": "Hotel Exotica - Hotel in Green Park, New Delhi",
    "address": "E-5, Block E, Green Park Extension, Green Park, New Delhi, Delhi 110016",
    "latitude": 28.5591788,
    "longitude": 77.2031959,
    "rating": 2.8,
    "room": "Sleeping Pods-24 hrs",
    "price": "588",
    "checkin": "anytime",
    "checkout": "anytime",
    "facilities": "Public Restroom, Free Wi-Fi, Luggage Storage, Front Desk, Parking facility (As Per Availability)"
  },
  {
    "name": "OYO Townhouse Green Park Residency 2",
    "address": "gate No 3, metro station, Plot No 27, Plot No 39, behind Ramsons Southend, near Green park, New Delhi, Delhi 110016",
    "latitude": 28.5592817,
    "longitude": 77.205835,
    "rating": 2.6,
    "room": "Standard Double|Luxary Double Room|Male Dormitory-3 hrs|Male Dormitory-24 hrs|Male Dormitory-12 hrs|Female Dormitory-6 hrs",
    "price": "6477|17170|1747|620|1135|873",
    "checkin": "anytime",
    "checkout": "anytime",
    "facilities": "Free Wi-Fi, Parking facility (As Per Availability), Luggage Storage, Front Desk, Free toiletries"
  },
  {
    "name": "Maplewood Stay",
    "address": "C-43, near Club, Block C, Neeti Bagh, New Delhi, Delhi 110049",
    "latitude": 28.558815,
    "longitude": 77.2166529,
    "rating": 4.8,
    "room": "Standard Double|Luxary Single Room|Luxary Double Room",
    "price": "6615|5791|18191",
    "checkin": "09:00",
    "checkout": "14:00",
    "facilities": "Free Wi-Fi, Front Desk, Free toiletries, Luggage Storage, Parking facility (As Per Availability), Public Restroom"
  },
  {
    "name": "The Host Residency - Patel Nagar",
    "address": "H56W+6Q9, Safdarjung Enclave, Block A 1, Humayunpur, Safdarjung Enclave, New Delhi, Delhi 110029",
    "latitude": 28.560526,
    "longitude": 77.1969806,
    "rating": 2.6,
    "room": "Standard Double|Luxary Double Room|Male Dormitory-12 hrs|Male Dormitory-6 hrs|Female Dormitory-12 hrs|Female Dormitory-6 hrs|Female Dormitory-24 hrs|Female Dormitory-3 hrs",
    "price": "5234|17166|807|839|1450|1850|1701|944",
    "checkin": "anytime",
    "checkout": "anytime",
    "facilities": "Public Restroom, Free Wi-Fi, Parking facility (As Per Availability), Free toiletries"
  },
  {
    "name": "Hotel The Deep Residency Inn",
    "address": "21, opp. Defence colony, near South Extension, South Extension I, Arjun Nagar, Kotla Mubarakpur, New Delhi, Delhi 110003",
    "latitude": 28.5737462,
    "longitude": 77.2271915,
    "rating": 4.5,
    "room": "Male Dormitory-6 hrs|Male Dormitory-12 hrs|Male Dormitory-3 hrs|Female Dormitory-12 hrs|Female Dormitory-6 hrs|Female Dormitory-24 hrs|Female Dormitory-3 hrs",
    "price": "865|1511|1443|1150|1120|1949|1947",
    "checkin": "anytime",
    "checkout": "anytime",
    "facilities": "Parking facility (As Per Availability), Free Wi-Fi, Front Desk, Public Restroom"
  },
  {
    "name": "Jay Ally - Boutique Hotel",
    "address": "A1/63, A-1 Block Rd, near Ambience Public School, Block A 1, Nauroji Nagar, Safdarjung Enclave, New Delhi, Delhi 110029",
    "latitude": 28.5664927,
    "longitude": 77.196758,
    "rating": 4.7,
    "room": "Sleeping Pods-6 hrs|Sleeping Pods-3 hrs|Sleeping Pods-24 hrs",
    "price": "1759|1763|1309",
    "checkin": "anytime",
    "checkout": "anytime",
    "facilities": "Parking facility (As Per Availability), Luggage Storage, Public Restroom, Free toiletries, Free Wi-Fi, Front Desk"
  },
  {
    "name": "Kumar Bed And Breakfast",
    "address": "A, 36, South Extension II, Block A, New Delhi, Delhi 110049",
    "latitude": 28.5664973,
    "longitude": 77.2214571,
    "rating": 4.3,
    "room": "Standard Double|Luxary Single Room|Male Dormitory-3 hrs|Male Dormitory-24 hrs|Female Dormitory-6 hrs|Female Dormitory-12 hrs|Female Dormitory-24 hrs",
    "price": "3615|6582|576|1010|1876|1516|1194",
    "checkin": "anytime",
    "checkout": "anytime",
    "facilities": "Luggage Storage, Front Desk, Free toiletries, Public Restroom, Free Wi-Fi"
  },
  {
    "name": "Aadarani Guest House, Green Park Extension,Delhi",
    "address": "Ground Floor, V-1, near Mandir Wali Gali, Green Park Extension, Ansari Nagar West, New Delhi, Delhi 110016",
    "latitude": 28.5620305,
    "longitude": 77.2068954,
    "rating": 4.7,
    "room": "Luxary Single Room|Luxary Double Room|Male Dormitory-3 hrs|Male Dormitory-6 hrs|Male Dormitory-12 hrs|Male Dormitory-24 hrs",
    "price": "6183|19871|1535|1769|810|867",
    "checkin": "anytime",
    "checkout": "anytime",
    "facilities": "Public Restroom, Luggage Storage, Free Wi-Fi, Parking facility (As Per Availability), Free toiletries"
  },
  {
    "name": "Green park haven",
    "address": "D 10, Block D, Green Park, New Delhi, Delhi 110016",
    "latitude": 28.5566667,
    "longitude": 77.2045592,
    "rating": 3.5,
    "room": "Luxary Double Room|Luxary Single Room",
    "price": "19191|7731",
    "checkin": "08:00",
    "checkout": "11:00",
    "facilities": "Free Wi-Fi, Free toiletries, Luggage Storage, Public Restroom"
  },
  {
    "name": "Skylink Suites",
    "address": "H, 7, South Extension I, Block H, South Delhi, New Delhi, Delhi 110049",
    "latitude": 28.5713537,
    "longitude": 77.2216006,
    "rating": 2.9,
    "room": "Sleeping Pods-12 hrs|Sleeping Pods-24 hrs",
    "price": "838|628",
    "checkin": "anytime",
    "checkout": "anytime",
    "facilities": "Luggage Storage, Parking facility (As Per Availability)"
  },
  {
    "name": "HOTEL ZARA GRAND",
    "address": "H-2A, Green Park Extension, Near Green Park Metro, Delhi, 110016",
    "latitude": 28.5596508,
    "longitude": 77.2064155,
    "rating": 3.7,
    "room": "Standard Double|Luxary Single Room|Luxary Double Room",
    "price": "3500|6110|17959",
    "checkin": "07:00",
    "checkout": "11:00",
    "facilities": "Free toiletries, Free Wi-Fi, Parking facility (As Per Availability)"
  },
  {
    "name": "OPUS",
    "address": "H 2, Block H, Green Park Extension, Green Park, New Delhi, Delhi 110016",
    "latitude": 28.5598184,
    "longitude": 77.2062048,
    "rating": 3.6,
    "room": "Luxary Single Room|Luxary Double Room",
    "price": "5397|16421",
    "checkin": "07:00",
    "checkout": "14:00",
    "facilities": "Parking facility (As Per Availability), Front Desk, Free Wi-Fi, Public Restroom, Luggage Storage"
  },
  {
    "name": "Hotel Nature View Green Park",
    "address": "115, Block B 7, Arjun Nagar, Safdarjung Enclave, New Delhi, Delhi 110029",
    "latitude": 28.560768,
    "longitude": 77.1969329,
    "rating": 3.3,
    "room": "Female Dormitory-24 hrs|Female Dormitory-12 hrs",
    "price": "791|1840",
    "checkin": "anytime",
    "checkout": "anytime",
    "facilities": "Parking facility (As Per Availability), Free toiletries, Free Wi-Fi, Luggage Storage"
  },
  {
    "name": "OYO 71532 Hotel New Delhi International",
    "address": "24/4, Yusuf Sarai, 24/4, mandir Lane, Green Park, New Delhi, Delhi 110016",
    "latitude": 28.560799,
    "longitude": 77.206732,
    "rating": 2.8,
    "room": "Standard Double|Luxary Double Room|Luxary Single Room",
    "price": "3286|19699|7775",
    "checkin": "10:00",
    "checkout": "13:00",
    "facilities": "Free Wi-Fi, Parking facility (As Per Availability), Public Restroom, Luggage Storage, Front Desk"
  },
  {
    "name": "Azurra Hotels",
    "address": "A-1/11, Safdarjung Enclave, B3 Block, Nauroji Nagar, Safdarjung Enclave, New Delhi, Delhi 110029",
    "latitude": 28.565575,
    "longitude": 77.19704,
    "rating": 2.6,
    "room": "Female Dormitory-12 hrs",
    "price": "1381",
    "checkin": "anytime",
    "checkout": "anytime",
    "facilities": "Free toiletries, Luggage Storage, Free Wi-Fi"
  },
  {
    "name": "OYO 5874 Hotel Shambha La",
    "address": "Down Town Near Zorawar Fort, Skara, Leh-Ladakh Jammu and Kashmir, 194101",
    "latitude": 28.560826,
    "longitude": 77.203489,
    "rating": 4.6,
    "room": "Standard Double|Female Dormitory-24 hrs|Female Dormitory-6 hrs",
    "price": "4641|944|1998",
    "checkin": "anytime",
    "checkout": "anytime",
    "facilities": "Luggage Storage, Public Restroom, Front Desk, Free Wi-Fi"
  },
  {
    "name": "Hotel O Maharaja Inn",
    "address": "Block C, Lajpat Nagar I, Lajpat Nagar, New Delhi, Delhi 110024",
    "latitude": 28.5781969,
    "longitude": 77.2390597,
    "rating": 4.4,
    "room": "Standard Double|Luxary Double Room|Luxary Single Room",
    "price": "3291|16189|7693",
    "checkin": "08:00",
    "checkout": "14:00",
    "facilities": "Free Wi-Fi, Public Restroom, Front Desk, Parking facility (As Per Availability)"
  },
  {
    "name": "OYO 358 Hotel Golden Leaf",
    "address": "A1/296, Safdarjung Enclave, Block A 1, Nauroji Nagar, Safdarjung Enclave, New Delhi, Delhi 110029",
    "latitude": 28.5681548,
    "longitude": 77.1992014,
    "rating": 2.7,
    "room": "Male Dormitory-3 hrs|Male Dormitory-24 hrs|Male Dormitory-12 hrs|Female Dormitory-12 hrs|Female Dormitory-3 hrs|Female Dormitory-6 hrs",
    "price": "1431|927|582|1422|757|1774",
    "checkin": "anytime",
    "checkout": "anytime",
    "facilities": "Free Wi-Fi, Free toiletries"
  },
  {
    "name": "Iris Park Hotel",
    "address": "A 1/23&24,   , B3 Block, Nauroji Nagar, Safdarjung Enclave, New Delhi, Delhi 110029",
    "latitude": 28.5659912,
    "longitude": 77.1951664,
    "rating": 4.1,
    "room": "Luxary Single Room",
    "price": "7440",
    "checkin": "09:00",
    "checkout": "12:00",
    "facilities": "Front Desk, Public Restroom, Luggage Storage, Parking facility (As Per Availability), Free toiletries, Free Wi-Fi"
  },
  {
    "name": "Yanas Bed And Breakfast",
    "address": "First Floor 48, Plot no- 322/1, near by A, South Extension II, Uday Park, New Delhi, Delhi 110049",
    "latitude": 28.5597756,
    "longitude": 77.2194402,
    "rating": 4.0,
    "room": "Male Dormitory-12 hrs",
    "price": "1040",
    "checkin": "anytime",
    "checkout": "anytime",
    "facilities": "Front Desk, Free Wi-Fi, Public Restroom, Luggage Storage, Free toiletries, Parking facility (As Per Availability)"
  },
  {
    "name": "Hotel Prince Palace Deluxe",
    "address": "5115, Gali Thanedar, behind Sushant Travels private limited, Bharat Nagar, Paharganj, New Delhi, Delhi 110055",
    "latitude": 28.6407267,
    "longitude": 77.2115475,
    "rating": 3.9,
    "room": "Male Dormitory-6 hrs|Male Dormitory-3 hrs|Female Dormitory-3 hrs|Female Dormitory-24 hrs",
    "price": "1191|1292|1098|1089",
    "checkin": "anytime",
    "checkout": "anytime",
    "facilities": "Luggage Storage, Free toiletries, Parking facility (As Per Availability), Free Wi-Fi, Public Restroom, Front Desk"
  },
  {
    "name": "Hotel The Raj",
    "address": "8494, Arakashan Rd, Ram Nagar, Paharganj, New Delhi, Delhi 110055",
    "latitude": 28.6460136,
    "longitude": 77.2145093,
    "rating": 4.1,
    "room": "Male Dormitory-6 hrs|Male Dormitory-12 hrs|Male Dormitory-3 hrs|Male Dormitory-24 hrs|Female Dormitory-24 hrs|Female Dormitory-3 hrs|Female Dormitory-12 hrs|Female Dormitory-6 hrs",
    "price": "1651|1864|1099|1748|874|1546|1345|858",
    "checkin": "anytime",
    "checkout": "anytime",
    "facilities": "Luggage Storage, Free toiletries, Free Wi-Fi"
  },
  {
    "name": "Hotel Su Shree Continental",
    "address": "3198/XV, Dispensary Lane, behind Revels Hotel, Bazar Sangatrashan, Ratan Lal Market, Sangatarshan, Paharganj, New Delhi, Delhi 110055",
    "latitude": 28.6443789,
    "longitude": 77.2132405,
    "rating": 3.3,
    "room": "Standard Double|Male Dormitory-12 hrs|Male Dormitory-24 hrs|Male Dormitory-3 hrs|Male Dormitory-6 hrs|Female Dormitory-6 hrs",
    "price": "3220|811|968|1591|1401|622",
    "checkin": "anytime",
    "checkout": "anytime",
    "facilities": "Free toiletries, Free Wi-Fi, Parking facility (As Per Availability), Public Restroom"
  },
  {
    "name": "The Metrostay Delhi",
    "address": "Bhavbhuti Marg, Kamla Market, Ajmeri Gate, New Delhi, Delhi, 110001",
    "latitude": 28.6423896,
    "longitude": 77.2240312,
    "rating": 3.9,
    "room": "Male Dormitory-3 hrs|Male Dormitory-24 hrs|Male Dormitory-6 hrs|Male Dormitory-12 hrs|Female Dormitory-6 hrs|Female Dormitory-24 hrs",
    "price": "580|1272|1382|1337|1945|1338",
    "checkin": "anytime",
    "checkout": "anytime",
    "facilities": "Free toiletries, Front Desk"
  },
  {
    "name": "Hotel Glow Inn-3 Mins Walking From NDLS",
    "address": "448, Chandi Wali Gali, Ratan Lal Market, Kaseru Walan, Paharganj, New Delhi, Delhi 110055",
    "latitude": 28.6422294,
    "longitude": 77.2149198,
    "rating": 3.2,
    "room": "Sleeping Pods-6 hrs|Sleeping Pods-3 hrs|Sleeping Pods-12 hrs",
    "price": "825|678|1383",
    "checkin": "anytime",
    "checkout": "anytime",
    "facilities": "Front Desk, Free toiletries, Public Restroom, Luggage Storage, Free Wi-Fi"
  },
  {
    "name": "Hotel Prince Palace (The Green)",
    "address": "5116-17-18(Part) Gali Thanedar Wali, Main Bazar Rd, near MyBar & restaurant, Paharganj, New Delhi, Delhi 110055",
    "latitude": 28.6406719,
    "longitude": 77.211439,
    "rating": 3.5,
    "room": "Standard Double|Luxary Double Room|Male Dormitory-3 hrs|Male Dormitory-24 hrs|Male Dormitory-6 hrs|Male Dormitory-12 hrs",
    "price": "5801|17269|1376|1832|780|1011",
    "checkin": "anytime",
    "checkout": "anytime",
    "facilities": "Public Restroom, Front Desk, Free toiletries, Parking facility (As Per Availability), Luggage Storage"
  },
  {
    "name": "Hotel Dream Palace @ New Delhi Railway Station",
    "address": "hotel dream palace, Dream Palace, railway station, arkashan rd, 44, Arakashan Rd, near railway station, Ram Nagar, Paharganj, New Delhi, Delhi 110055",
    "latitude": 28.6459509,
    "longitude": 77.214684,
    "rating": 4.5,
    "room": "Standard Double",
    "price": "5150",
    "checkin": "12:00",
    "checkout": "14:00",
    "facilities": "Parking facility (As Per Availability), Public Restroom, Free Wi-Fi, Luggage Storage, Front Desk, Free toiletries"
  },
  {
    "name": "Cottage Ganga Inn",
    "address": "1532, Gali, Main Bazar Rd, behind Sams Bar, near R.K Ashram Metro, Bazar Sangatrashan, Paharganj, New Delhi, Delhi 110055",
    "latitude": 28.6415168,
    "longitude": 77.212458,
    "rating": 4.5,
    "room": "Luxary Double Room|Male Dormitory-6 hrs|Female Dormitory-24 hrs|Female Dormitory-6 hrs|Female Dormitory-3 hrs",
    "price": "15890|903|1672|1660|1025",
    "checkin": "anytime",
    "checkout": "anytime",
    "facilities": "Free toiletries, Public Restroom, Luggage Storage"
  },
  {
    "name": "Zostel Delhi",
    "address": "Railway Station railway station, 5, Arakashan Rd, opposite new delhi, Paharganj, New Delhi, Delhi 110005",
    "latitude": 28.6455789,
    "longitude": 77.2174732,
    "rating": 3.7,
    "room": "Female Dormitory-6 hrs",
    "price": "1314",
    "checkin": "anytime",
    "checkout": "anytime",
    "facilities": "Free Wi-Fi, Front Desk, Public Restroom, Parking facility (As Per Availability), Free toiletries"
  },
  {
    "name": "The Grand Uddhav",
    "address": "4953-54, Ramdwara Rd, Bagichi Ramchander, Nehru Bazar, Paharganj, New Delhi, Delhi 110055",
    "latitude": 28.6401435,
    "longitude": 77.2132438,
    "rating": 3.6,
    "room": "Luxary Double Room",
    "price": "18301",
    "checkin": "08:00",
    "checkout": "13:00",
    "facilities": "Free Wi-Fi, Front Desk"
  },
  {
    "name": "Hotel Sterling Inn",
    "address": "442,Chandiwali Gali, Main Bazar Rd, near City Bank ATM, Paharganj, New Delhi, Delhi 110055",
    "latitude": 28.6421943,
    "longitude": 77.2148818,
    "rating": 4.9,
    "room": "Male Dormitory-24 hrs|Male Dormitory-3 hrs|Female Dormitory-6 hrs|Female Dormitory-3 hrs|Female Dormitory-12 hrs|Female Dormitory-24 hrs",
    "price": "1954|1597|1817|1967|1308|1733",
    "checkin": "anytime",
    "checkout": "anytime",
    "facilities": "Front Desk, Luggage Storage, Free toiletries, Public Restroom, Free Wi-Fi, Parking facility (As Per Availability)"
  },
  {
    "name": "Hotel Nirmal Mahal",
    "address": "1519 Gali, Mushtaq Rai Khanna Marg, behind Vivek hotel, Bazar Sangatrashan, Mantola Mohalla, Kaseru Walan, Paharganj, New Delhi, Delhi 110055",
    "latitude": 28.6416756,
    "longitude": 77.2127812,
    "rating": 4.8,
    "room": "Standard Double|Luxary Double Room|Luxary Single Room",
    "price": "6569|17470|6923",
    "checkin": "07:00",
    "checkout": "11:00",
    "facilities": "Free Wi-Fi, Parking facility (As Per Availability), Public Restroom, Luggage Storage, Front Desk, Free toiletries"
  },
  {
    "name": "Hotel Sun International- Budget Hotel near New Delhi Railway Station",
    "address": "7875, Arakashan Rd, Prem Nagar, Ram Nagar, Paharganj, New Delhi, Delhi 110055",
    "latitude": 28.6459274,
    "longitude": 77.2158383,
    "rating": 4.8,
    "room": "Sleeping Pods-6 hrs|Sleeping Pods-12 hrs|Sleeping Pods-24 hrs",
    "price": "959|912|1247",
    "checkin": "anytime",
    "checkout": "anytime",
    "facilities": "Public Restroom, Free toiletries, Free Wi-Fi"
  },
  {
    "name": "Hotel Star Villa",
    "address": "98-99, KRISHNA GALI, Main Bazar, Kaseru Walan, Paharganj, New Delhi, Delhi, 110055",
    "latitude": 28.642192,
    "longitude": 77.2177495,
    "rating": 2.8,
    "room": "Standard Double",
    "price": "6240",
    "checkin": "11:00",
    "checkout": "11:00",
    "facilities": "Front Desk, Parking facility (As Per Availability), Free toiletries, Public Restroom"
  },
  {
    "name": "Staybook Atlanta New Delhi Train Station",
    "address": "7971, Arakashan Rd, Arakashan, Paharganj, New Delhi, Delhi 110055",
    "latitude": 28.6461917,
    "longitude": 77.2140662,
    "rating": 3.3,
    "room": "Standard Double|Luxary Double Room",
    "price": "6997|15044",
    "checkin": "07:00",
    "checkout": "12:00",
    "facilities": "Free Wi-Fi, Front Desk, Luggage Storage, Parking facility (As Per Availability), Free toiletries"
  },
  {
    "name": "Hotel AV International Near New Delhi Railway Station, Paharganj",
    "address": "gate no-2, 3636, Tel Mandi Chowk, opp. New Delhi Railway Station, Ratan Lal Market, Kaseru Walan, Paharganj, Delhi, 110055",
    "latitude": 28.6433,
    "longitude": 77.217539,
    "rating": 2.6,
    "room": "Male Dormitory-24 hrs|Female Dormitory-12 hrs|Female Dormitory-6 hrs|Female Dormitory-3 hrs",
    "price": "1262|1661|1429|934",
    "checkin": "anytime",
    "checkout": "anytime",
    "facilities": "Public Restroom, Parking facility (As Per Availability), Free Wi-Fi"
  },
  {
    "name": "Bunk Hostel Delhi",
    "address": "Krishna Market, 22/1, Main Bazar Rd, Bharat Nagar, Paharganj, New Delhi, Delhi 110055",
    "latitude": 28.6404212,
    "longitude": 77.2103104,
    "rating": 4.2,
    "room": "Sleeping Pods-12 hrs|Sleeping Pods-3 hrs|Sleeping Pods-6 hrs",
    "price": "995|798|879",
    "checkin": "anytime",
    "checkout": "anytime",
    "facilities": "Public Restroom, Free toiletries, Front Desk"
  },
  {
    "name": "Hotel Dreamland Dx Pahargnj",
    "address": "8186/6 Gali No- 6 Arakashan Road Arya nagar, Multani Dhanda, New Delhi, Delhi 110055",
    "latitude": 28.6468761,
    "longitude": 77.212434,
    "rating": 2.5,
    "room": "Luxary Single Room|Luxary Double Room",
    "price": "7543|18247",
    "checkin": "07:00",
    "checkout": "13:00",
    "facilities": "Public Restroom, Luggage Storage, Free Wi-Fi, Front Desk, Free toiletries"
  },
  {
    "name": "Hotel Klick International",
    "address": "3357, Gali Hari Mandir, opp. Hotel Chopra International, Ratan Lal Market, Kaseru Walan, Paharganj, New Delhi, Delhi 110055",
    "latitude": 28.643408,
    "longitude": 77.214748,
    "rating": 4.9,
    "room": "Sleeping Pods-3 hrs|Sleeping Pods-6 hrs",
    "price": "857|1221",
    "checkin": "anytime",
    "checkout": "anytime",
    "facilities": "Luggage Storage, Free toiletries, Parking facility (As Per Availability), Front Desk, Free Wi-Fi"
  },
  {
    "name": "OYO 6317 Hotel Shiv Palace",
    "address": "8186, 6, Arakashan Rd, Multani Dhanda, Paharganj, Delhi, New Delhi, Delhi 110055",
    "latitude": 28.6469764,
    "longitude": 77.2124508,
    "rating": 4.1,
    "room": "Luxary Double Room",
    "price": "16112",
    "checkin": "11:00",
    "checkout": "13:00",
    "facilities": "Public Restroom, Front Desk, Free toiletries, Parking facility (As Per Availability), Luggage Storage"
  },
  {
    "name": "Hotel Toronto",
    "address": "Plot No. 10072, Central, 1, Multani Dhanda, Paharganj, New Delhi, Delhi 110055",
    "latitude": 28.6463888,
    "longitude": 77.2089559,
    "rating": 4.9,
    "room": "Luxary Single Room|Luxary Double Room|Male Dormitory-3 hrs",
    "price": "7777|16413|1267",
    "checkin": "anytime",
    "checkout": "anytime",
    "facilities": "Front Desk, Free Wi-Fi"
  },
  {
    "name": "HOTEL ROMA DELUXE",
    "address": "8165, Arakashan Rd, Ram Nagar, Paharganj, New Delhi, Delhi 110055",
    "latitude": 28.6463499,
    "longitude": 77.2135718,
    "rating": 3.7,
    "room": "Male Dormitory-6 hrs",
    "price": "1362",
    "checkin": "anytime",
    "checkout": "anytime",
    "facilities": "Public Restroom, Front Desk, Free toiletries, Free Wi-Fi, Parking facility (As Per Availability)"
  },
  {
    "name": "Mahesh Guest House",
    "address": "Shop No. T-316, General Market, Ramdwara Rd, near Khanna Cinema, Bazar Sangatrashan, Sidarth Basti, Bharat Nagar, Paharganj, New Delhi, Delhi 110055",
    "latitude": 28.6407393,
    "longitude": 77.2128455,
    "rating": 4.0,
    "room": "Sleeping Pods-12 hrs|Sleeping Pods-24 hrs|Sleeping Pods-6 hrs",
    "price": "1312|790|1018",
    "checkin": "anytime",
    "checkout": "anytime",
    "facilities": "Free toiletries, Front Desk, Luggage Storage, Free Wi-Fi"
  },
  {
    "name": "Hotel Shivam international",
    "address": "1335, Bus Stop, Gali, Mushtaq Rai Khanna Marg, opp. Dispensary, Bazar Sangatrashan, Ratan Lal Market, Kaseru Walan, Paharganj, New Delhi, Delhi 110055",
    "latitude": 28.6437532,
    "longitude": 77.2131771,
    "rating": 4.4,
    "room": "Luxary Double Room|Male Dormitory-3 hrs|Male Dormitory-6 hrs|Male Dormitory-24 hrs|Male Dormitory-12 hrs",
    "price": "17049|1424|1759|1143|710",
    "checkin": "anytime",
    "checkout": "anytime",
    "facilities": "Public Restroom, Parking facility (As Per Availability)"
  },
  {
    "name": "Hotel Mother Palace",
    "address": "1454, Ranjeet Gali, 1469, Sang Trashan Marg, near Sai baba mandir, Bazar Sangatrashan, Chuna Mandi, Paharganj, New Delhi, Delhi 110055",
    "latitude": 28.6423737,
    "longitude": 77.2124925,
    "rating": 3.7,
    "room": "Luxary Double Room|Male Dormitory-6 hrs|Male Dormitory-3 hrs|Male Dormitory-24 hrs|Male Dormitory-12 hrs|Female Dormitory-6 hrs|Female Dormitory-24 hrs|Female Dormitory-12 hrs",
    "price": "15239|510|839|1628|1103|1032|1363|1580",
    "checkin": "anytime",
    "checkout": "anytime",
    "facilities": "Parking facility (As Per Availability), Luggage Storage, Front Desk"
  },
  {
    "name": "Hotel Harsha International",
    "address": "AK-22, Arakashan Rd, Ram Nagar, Paharganj, New Delhi, Delhi 110055",
    "latitude": 28.6456898,
    "longitude": 77.2151904,
    "rating": 2.6,
    "room": "Male Dormitory-24 hrs",
    "price": "654",
    "checkin": "anytime",
    "checkout": "anytime",
    "facilities": "Luggage Storage, Front Desk, Free toiletries, Public Restroom"
  },
  {
    "name": "Rekha cottage drooms and rooms bed and brekfast",
    "address": "1st floor, main bazar, 4758, Paharganj, New Delhi, Delhi 110055",
    "latitude": 28.6411633,
    "longitude": 77.2143799,
    "rating": 4.3,
    "room": "Male Dormitory-12 hrs",
    "price": "1110",
    "checkin": "anytime",
    "checkout": "anytime",
    "facilities": "Free toiletries, Free Wi-Fi, Public Restroom, Luggage Storage"
  },
  {
    "name": "Hotel Golden Oasis Delhi",
    "address": "901 Chandi Wali Street, Main Bazar Rd, near AXIS bank ATM, New Delhi, Delhi 110055",
    "latitude": 28.6417885,
    "longitude": 77.2148719,
    "rating": 3.3,
    "room": "Luxary Single Room|Standard Double",
    "price": "7296|3000",
    "checkin": "12:00",
    "checkout": "12:00",
    "facilities": "Luggage Storage, Parking facility (As Per Availability), Free toiletries"
  },
  {
    "name": "Spot Inn Hostel",
    "address": "867-868, Chandi Wali Gali Main Bazar Road, the street, next to City Bank ATM, Paharganj, New Delhi, Delhi 110055",
    "latitude": 28.6417956,
    "longitude": 77.2146365,
    "rating": 4.8,
    "room": "Luxary Single Room",
    "price": "7720",
    "checkin": "12:00",
    "checkout": "12:00",
    "facilities": "Luggage Storage, Free toiletries, Free Wi-Fi, Public Restroom, Front Desk, Parking facility (As Per Availability)"
  },
  {
    "name": "Hotel Woodland Deluxe",
    "address": "8235, 6, Arakashan Rd, Multani Dhanda, Paharganj, New Delhi, Delhi 110055",
    "latitude": 28.6467836,
    "longitude": 77.2126302,
    "rating": 3.6,
    "room": "Luxary Single Room",
    "price": "5988",
    "checkin": "11:00",
    "checkout": "11:00",
    "facilities": "Front Desk, Public Restroom, Parking facility (As Per Availability), Luggage Storage, Free toiletries, Free Wi-Fi"
  },
  {
    "name": "Hotel Nancy Dx",
    "address": "Railway Station, 7779, Arakashan Rd, near New Delhi, Prem Nagar, Ram Nagar, Paharganj, New Delhi, Delhi, 110055",
    "latitude": 28.6460437,
    "longitude": 77.2175604,
    "rating": 4.4,
    "room": "Male Dormitory-24 hrs|Male Dormitory-12 hrs",
    "price": "751|1315",
    "checkin": "anytime",
    "checkout": "anytime",
    "facilities": "Free Wi-Fi, Luggage Storage, Parking facility (As Per Availability)"
  },
  {
    "name": "Hotel Silver Palace",
    "address": "614, Tooti Chowk, near 6, Mantola Mohalla, Kaseru Walan, Paharganj, Delhi, New Delhi, Delhi 110055",
    "latitude": 28.641933,
    "longitude": 77.2132423,
    "rating": 4.6,
    "room": "Luxary Single Room|Male Dormitory-3 hrs|Male Dormitory-24 hrs|Male Dormitory-6 hrs",
    "price": "6010|1081|872|552",
    "checkin": "anytime",
    "checkout": "anytime",
    "facilities": "Public Restroom, Free toiletries, Free Wi-Fi, Luggage Storage, Parking facility (As Per Availability)"
  },
  {
    "name": "Hotel Amar International",
    "address": "2024, Gali Number 7, Chuna Mandi, Paharganj, New Delhi, Delhi 110055",
    "latitude": 28.643761,
    "longitude": 77.2099524,
    "rating": 2.9,
    "room": "Standard Double|Male Dormitory-24 hrs|Male Dormitory-6 hrs|Female Dormitory-12 hrs|Female Dormitory-3 hrs|Female Dormitory-24 hrs|Female Dormitory-6 hrs",
    "price": "6625|1293|1671|1042|901|983|1592",
    "checkin": "anytime",
    "checkout": "anytime",
    "facilities": "Parking facility (As Per Availability), Front Desk, Public Restroom, Free Wi-Fi, Free toiletries"
  },
  {
    "name": "Hotel Maharani Lodge",
    "address": "Railway Station, 32, Ram Nagar, Arakashan Rd, near New Delhi, Arya Nagar, Paharganj, New Delhi, Delhi 110055",
    "latitude": 28.646157,
    "longitude": 77.2148448,
    "rating": 3.2,
    "room": "Male Dormitory-3 hrs|Female Dormitory-12 hrs",
    "price": "1337|1490",
    "checkin": "anytime",
    "checkout": "anytime",
    "facilities": "Front Desk, Parking facility (As Per Availability), Luggage Storage, Public Restroom, Free Wi-Fi, Free toiletries"
  },
  {
    "name": "Bloomrooms @ New Delhi Railway Station",
    "address": "8592, Arakashan Rd, opp. Hindu temple, Arya Nagar, Paharganj, New Delhi, Delhi, 110055",
    "latitude": 28.6455829,
    "longitude": 77.2176961,
    "rating": 3.1,
    "room": "Sleeping Pods-3 hrs|Sleeping Pods-12 hrs|Sleeping Pods-6 hrs|Sleeping Pods-24 hrs",
    "price": "1630|1043|628|1209",
    "checkin": "anytime",
    "checkout": "anytime",
    "facilities": "Free Wi-Fi, Free toiletries, Public Restroom, Front Desk, Luggage Storage, Parking facility (As Per Availability)"
  },
  {
    "name": "Hotel Karlo kastle @ Paharganj",
    "address": "5118, Main Bazar Rd, behind Sushant Travels Private limited, Bharat Nagar, Paharganj, New Delhi, Delhi 110055",
    "latitude": 28.6406144,
    "longitude": 77.2113669,
    "rating": 2.6,
    "room": "Standard Double|Luxary Single Room|Luxary Double Room",
    "price": "3613|7258|16411",
    "checkin": "10:00",
    "checkout": "11:00",
    "facilities": "Free Wi-Fi, Parking facility (As Per Availability), Luggage Storage, Free toiletries, Front Desk, Public Restroom"
  },
  {
    "name": "HOTEL BAJRANG",
    "address": "4630, Shora Kothi, 4630, Main Bazar Rd, Shora Kothi, Paharganj, New Delhi, Delhi 110055",
    "latitude": 28.6408114,
    "longitude": 77.2152454,
    "rating": 2.9,
    "room": "Luxary Single Room|Standard Double",
    "price": "6077|5734",
    "checkin": "11:00",
    "checkout": "14:00",
    "facilities": "Free Wi-Fi, Parking facility (As Per Availability), Free toiletries, Luggage Storage, Public Restroom"
  },
  {
    "name": "New Hotel Northern Palace",
    "address": "Katra Raiji, 4425, Basant Rd, Bagichi Ramchander, Kaseru Walan, Paharganj, New Delhi, Delhi, 110055",
    "latitude": 28.6407449,
    "longitude": 77.2167239,
    "rating": 4.6,
    "room": "Sleeping Pods-24 hrs|Sleeping Pods-3 hrs|Sleeping Pods-6 hrs",
    "price": "772|600|585",
    "checkin": "anytime",
    "checkout": "anytime",
    "facilities": "Parking facility (As Per Availability), Front Desk"
  },
  {
    "name": "Hotel S B Inn Paharganj",
    "address": "898 Chandi Wali Gali, Main Bazar Rd, Paharganj, New Delhi, Delhi 110055",
    "latitude": 28.6417309,
    "longitude": 77.2148078,
    "rating": 3.3,
    "room": "Male Dormitory-3 hrs|Male Dormitory-24 hrs",
    "price": "1631|644",
    "checkin": "anytime",
    "checkout": "anytime",
    "facilities": "Front Desk, Public Restroom, Free toiletries"
  },
  {
    "name": "Hotel Pink City",
    "address": "4252, Katra Neel Rd, opposite Railway Station, Ratan Lal Market, Kaseru Walan, Paharganj, New Delhi, Delhi, 110055",
    "latitude": 28.642428,
    "longitude": 77.2179531,
    "rating": 2.7,
    "room": "Standard Double|Male Dormitory-24 hrs",
    "price": "4216|1582",
    "checkin": "anytime",
    "checkout": "anytime",
    "facilities": "Free toiletries, Luggage Storage"
  },
  {
    "name": "Hotel Delhi Guest House",
    "address": "1016/21, Halwai Gali, Ratan Lal Market, Kaseru Walan, Paharganj, New Delhi, Delhi, 110055",
    "latitude": 28.6422884,
    "longitude": 77.2165525,
    "rating": 4.0,
    "room": "Standard Double|Luxary Single Room",
    "price": "6820|6778",
    "checkin": "07:00",
    "checkout": "12:00",
    "facilities": "Public Restroom, Free Wi-Fi, Front Desk, Parking facility (As Per Availability), Luggage Storage"
  },
  {
    "name": "Hotel Prem Deluxe",
    "address": "J6R8+VJP, Halwai Gali, Ratan Lal Market, Kaseru Walan, Paharganj, Delhi, 110055",
    "latitude": 28.6422246,
    "longitude": 77.2165798,
    "rating": 4.7,
    "room": "Female Dormitory-12 hrs|Female Dormitory-6 hrs",
    "price": "1318|785",
    "checkin": "anytime",
    "checkout": "anytime",
    "facilities": "Front Desk, Free toiletries, Parking facility (As Per Availability), Free Wi-Fi, Luggage Storage"
  },
  {
    "name": "Super Townhouse Arakashan Road Paharganj formerly Mohan international",
    "address": "Plot Number 2, Arakashan Rd, near Railway Station, Arya Nagar, Paharganj, New Delhi, Delhi, 110055",
    "latitude": 28.6451432,
    "longitude": 77.2174875,
    "rating": 3.2,
    "room": "Female Dormitory-12 hrs",
    "price": "1409",
    "checkin": "anytime",
    "checkout": "anytime",
    "facilities": "Free Wi-Fi, Free toiletries, Front Desk, Luggage Storage, Parking facility (As Per Availability), Public Restroom"
  },
  {
    "name": "OYO 517 Hotel Star View",
    "address": "5136 1, Main Bazar Rd, Bharat Nagar, Paharganj, New Delhi, Delhi 110055",
    "latitude": 28.640561,
    "longitude": 77.2106939,
    "rating": 4.9,
    "room": "Female Dormitory-6 hrs|Female Dormitory-3 hrs|Female Dormitory-24 hrs|Female Dormitory-12 hrs",
    "price": "1138|1018|757|1484",
    "checkin": "anytime",
    "checkout": "anytime",
    "facilities": "Free toiletries, Front Desk, Luggage Storage, Parking facility (As Per Availability), Public Restroom, Free Wi-Fi"
  },
  {
    "name": "Hotel Staywell Deluxe",
    "address": "No. 3499-3500, Desh Bhandu Gupta Road, Ratan Lal Market, Kaseru Walan, Paharganj, New Delhi, Delhi 110055",
    "latitude": 28.6441434,
    "longitude": 77.2158161,
    "rating": 4.3,
    "room": "Female Dormitory-3 hrs|Female Dormitory-12 hrs|Female Dormitory-6 hrs|Female Dormitory-24 hrs",
    "price": "1532|905|1253|1159",
    "checkin": "anytime",
    "checkout": "anytime",
    "facilities": "Luggage Storage, Public Restroom"
  },
  {
    "name": "Hotel Lord Krishna Dx Inn by A One Rooms",
    "address": "Tooti Chowk, Plot No- 367, Main Bazar Rd, near 6, Bazar Sangatrashan, Mantola Mohalla, Kaseru Walan, Paharganj, New Delhi, Delhi 110055",
    "latitude": 28.6411329,
    "longitude": 77.2134418,
    "rating": 4.9,
    "room": "Female Dormitory-6 hrs|Female Dormitory-24 hrs|Female Dormitory-12 hrs|Female Dormitory-3 hrs",
    "price": "684|1846|771|1476",
    "checkin": "anytime",
    "checkout": "anytime",
    "facilities": "Public Restroom, Parking facility (As Per Availability), Free Wi-Fi, Free toiletries, Luggage Storage"
  },
  {
    "name": "Hotel Gold Regency",
    "address": "4350, Main Bazar Rd, Bagichi Ramchander, Kaseru Walan, Paharganj, New Delhi, Delhi, 110055",
    "latitude": 28.6415401,
    "longitude": 77.217005,
    "rating": 3.6,
    "room": "Standard Double|Luxary Single Room",
    "price": "5638|5683",
    "checkin": "10:00",
    "checkout": "13:00",
    "facilities": "Free toiletries, Public Restroom, Free Wi-Fi, Luggage Storage, Parking facility (As Per Availability)"
  },
  {
    "name": "Hotel Shiva Intercontinental",
    "address": "8478, Arakashan Rd, Ram Nagar, Paharganj, New Delhi, Delhi 110055",
    "latitude": 28.6460336,
    "longitude": 77.2142882,
    "rating": 4.3,
    "room": "Luxary Double Room",
    "price": "17625",
    "checkin": "12:00",
    "checkout": "13:00",
    "facilities": "Luggage Storage, Front Desk"
  },
  {
    "name": "Tivoli Grand Resort Hotel",
    "address": "Main, GT Karnal Rd, opp. Sai Baba Mandir, Alipur, New Delhi, Delhi, 110036",
    "latitude": 28.7885857,
    "longitude": 77.1437444,
    "rating": 4.5,
    "room": "Luxary Single Room|Luxary Double Room|Standard Double",
    "price": "5949|17328|4474",
    "checkin": "11:00",
    "checkout": "11:00",
    "facilities": "Free toiletries, Luggage Storage, Public Restroom"
  },
  {
    "name": "LAVANYA MOTEL, North Delhi",
    "address": "G T Road, Palla Bakhtavarpur Road, Alipur, Alipur, Delhi, 110036",
    "latitude": 28.8043838,
    "longitude": 77.1440281,
    "rating": 3.3,
    "room": "Standard Double|Luxary Single Room|Luxary Double Room",
    "price": "5918|6274|15953",
    "checkin": "10:00",
    "checkout": "14:00",
    "facilities": "Public Restroom, Parking facility (As Per Availability), Free toiletries, Luggage Storage, Free Wi-Fi"
  },
  {
    "name": "SAHIB FARMS & RESORTS",
    "address": "SAHIB RESORTS bani road shubash chowk, near nirmal hospital, Bakhtawarpur, Delhi, 110036",
    "latitude": 28.8075862,
    "longitude": 77.1670046,
    "rating": 2.8,
    "room": "Luxary Single Room|Luxary Double Room|Female Dormitory-3 hrs|Female Dormitory-12 hrs|Female Dormitory-6 hrs|Female Dormitory-24 hrs",
    "price": "7375|18137|672|1918|755|1734",
    "checkin": "anytime",
    "checkout": "anytime",
    "facilities": "Free toiletries, Parking facility (As Per Availability)"
  },
  {
    "name": "MH One Resort Hotel",
    "address": "GT Karnal Rd, Alipur, Delhi, 110036",
    "latitude": 28.8074048,
    "longitude": 77.1419242,
    "rating": 4.4,
    "room": "Standard Double|Luxary Single Room|Luxary Double Room|Male Dormitory-12 hrs|Male Dormitory-24 hrs|Female Dormitory-3 hrs",
    "price": "6765|5288|18498|629|1729|1024",
    "checkin": "anytime",
    "checkout": "anytime",
    "facilities": "Front Desk, Free Wi-Fi, Parking facility (As Per Availability), Free toiletries, Luggage Storage"
  },
  {
    "name": "Capital O 16658 Anila",
    "address": "A-15, Shindi Colony, Naraina Vihar, Naraina, New Delhi, Delhi 110028",
    "latitude": 28.6266532,
    "longitude": 77.1357815,
    "rating": 4.4,
    "room": "Standard Double|Luxary Single Room|Luxary Double Room",
    "price": "4895|5450|15396",
    "checkin": "07:00",
    "checkout": "11:00",
    "facilities": "Parking facility (As Per Availability), Front Desk"
  },
  {
    "name": "FAMILY GUEST HOUSE",
    "address": "GT Karnal Rd, Bakoli, Delhi, 110036",
    "latitude": 28.8167458,
    "longitude": 77.1380816,
    "rating": 3.1,
    "room": "Female Dormitory-3 hrs|Female Dormitory-6 hrs",
    "price": "1085|1655",
    "checkin": "anytime",
    "checkout": "anytime",
    "facilities": "Front Desk, Public Restroom, Parking facility (As Per Availability)"
  },
  {
    "name": "Dreamy Orchard",
    "address": "Dreamy Orchard Village Janti Khurd, opp. Binsar Farms Pvt Ltd, near Singhu Border, Delhi, Haryana 131028",
    "latitude": 28.8451462,
    "longitude": 77.1549108,
    "rating": 2.7,
    "room": "Male Dormitory-24 hrs|Male Dormitory-6 hrs|Male Dormitory-3 hrs",
    "price": "710|1154|942",
    "checkin": "anytime",
    "checkout": "anytime",
    "facilities": "Parking facility (As Per Availability), Luggage Storage, Free toiletries, Public Restroom, Free Wi-Fi, Front Desk"
  },
  {
    "name": "Hotel Park View - Hotel in Jahangirpuri",
    "address": "B3, North, Indira Visas Colony, Pocket, Mahendra Park, Jahangirpuri, New Delhi, Delhi, 110033",
    "latitude": 28.7218813,
    "longitude": 77.1662112,
    "rating": 2.6,
    "room": "Luxary Single Room|Luxary Double Room|Male Dormitory-24 hrs|Male Dormitory-12 hrs|Male Dormitory-6 hrs",
    "price": "6262|18105|1120|1236|571",
    "checkin": "anytime",
    "checkout": "anytime",
    "facilities": "Front Desk, Free toiletries"
  },